,Unnamed: 0,FACILITY_CODE,SOURCE,STATE,FACILITY,CITY,LATITUDE,LONGITUDE,FLOW_2012_MGD,2012_TOT_ANNUAL_MM3,CWNS_NUM,NPDES_ID,check_sewer_permits
0,0,AK00005,CWNS2012,AK,Juneau-Douglas Sewer System,Juneau,58.2868,-134.3826,1.17,1.617666573,2000102001,AK0023213,sewer_system
1,1,AK00015,CWNS2012,AK,MENDENHALL VALLEY TREATMENT PLANT,Juneau,58.3614,-134.5965,2.14,2.958808945,2000102002,AK0022951,sewer_system
2,2,AK00025,CWNS2012,AK,AUKE BAY STP,Juneau,58.3874,-134.6486,0.13,0.17974073,2000102003,AKG572004,sewer_system
3,3,AK00035,CWNS2012,AK,"POINT WORONZOF, JOHN ASPLUND WWTP",ANCHORAGE,61.1964,-150.0235,29.66,41.00853893,2000106001,AK0022551,sewer_system
4,4,AK00045,CWNS2012,AK,EAGLE RIVER WWTP,ANCHORAGE,61.3198,-149.5841,1.4,1.935669404,2000106002,AK0022543,sewer_system
5,5,AK00055,CWNS2012,AK,GIRDWOOD WWTP,ANCHORAGE,60.9494,-149.1577,0.46,0.636005661,2000106003,AK0047856,sewer_system
6,6,AK00065,CWNS2012,AK,KENAI STP,Kenai,60.5503,-151.2684,0.57,0.7880939714249999,2000111001,AK0021377,sewer_system
7,7,AK00075,CWNS2012,AK,DILLINGHAM WWTP,Dillingham,59.451,-157.3141,0.273,0.377455534,2000119001,AKG570018,sewer_system
8,8,AK00085,CWNS2012,AK,SOLDOTNA WWTP,Soldotna,60.483,-151.087,1.02,1.410273423,2000123001,AK0020036,sewer_system
9,9,AK00095,CWNS2012,AK,UNALASKA WASTEWATER TP,Unalaska,53.8805,-166.5602,0.483,0.667805944,2000175001,AK0043451,sewer_system
10,10,AK00105,CWNS2012,AK,WASILLA WWTP,Wasilla,61.5661,-149.3779,0.3,0.414786301,2000299001,0,no_permit
11,11,AK00115,CWNS2012,AK,North Pole,North Pole,64.7444,-147.3642,0.28,0.387133881,2000500032,AK0021393,sewer_system
12,12,AK00135,ICIS2022,AK,BARROW WWTF,BARROW,71.3067,-156.712,0.6,0.829572602,2000500010,AKG572006,sewer_system
13,13,AK00140,ICIS2022,AK,CITY OF FAIRBANKS AND GOLDEN HEART UTILITIES INC WWTF,FAIRBANKS,64.8033,-147.775,8,11.06096802,2000107001,AK0023451,sewer_system
14,14,AK00145,ICIS2022,AK,"CORDOVA, CITY OF",CORDOVA,60.538611,-145.782222,0.319,0.4410561,2000125001,AK0021547,sewer_system
15,15,AK00150,ICIS2022,AK,HOMER WW TREATMENT FACILITY,HOMER,59.6328,-151.548,0.37,0.511569771,2000114001,AK0021245,sewer_system
16,16,AK00175,ICIS2022,AK,METLAKATLA SEWER TREATMENT PLANT,METLAKATLA INDIAN COMMUNITY,55.123669,-131.594051,0,0,2000366001,AK0053813,sewer_system
17,17,AK00180,ICIS2022,AK,MOUNTAIN POINT WWTF,KETCHIKAN,55.2944,-131.539,0.148,0.2046279083699999,2000108002,AKG572028,sewer_system
18,18,AK00235,ICIS2022,AK,"WRANGELL, CITY OF WWTP",WRANGELL,56.452436,-132.379463,0.354,0.4894478348849999,2000118001,AK0021466,sewer_system
19,19,AL00005,CWNS2012,AL,AKRON LAGOON,Akron,32.8859,-87.7404,0.06,0.08295726,1000002001,AL0059714,sewer_system
20,20,AL00015,CWNS2012,AL,ALABASTER WWTP,ALABASTER,33.2534,-86.8154,3,4.147863008,1000003001,AL0025828,sewer_system
21,21,AL00025,CWNS2012,AL,ALEXANDER CITY SUGAR CREEK WWTP,ALEXANDER CITY,32.9014,-85.9514,4.7,6.498318712,1000004001,AL0048861,sewer_system
22,22,AL00035,CWNS2012,AL,ALEXANDER CITY COLEY CREEK WWTP,Alexander City,32.9299,-85.882,1.51,2.087757714,1000004002,AL0021156,sewer_system
23,23,AL00045,CWNS2012,AL,ALTOONA LAGOON,Altoona,34.0379,-86.3318,0.017,0.023504557,1000005001,AL0021237,sewer_system
24,24,AL00055,CWNS2012,AL,ANDALUSIA RIVERSIDE WWTP,ANDALUSIA,31.3058,-86.5223,1.48,2.046279084,1000006004,AL0055417,sewer_system
25,25,AL00065,CWNS2012,AL,ANNISTON CHOCCOLOCCO WWTP,ANNISTON,33.6032,-85.8293,8.8,12.16706482,1000007001,AL0022195,sewer_system
26,26,AL00075,CWNS2012,AL,ANNISTON FT. MCCLELLAN WWTP,ANNISTON,33.7274,-85.8067,1.039,1.4365432215974998,1000007002,AL0024520,sewer_system
27,27,AL00085,CWNS2012,AL,ARAB RILEY MAZE CREEK WWTP,Arab,34.3302,-86.5213,0.81,1.119923012,1000009001,AL0020303,sewer_system
28,28,AL00095,CWNS2012,AL,ARAB GILLIAM CREEK WWTP,Arab,34.3302,-86.5213,1.16,1.603840363,1000009002,AL0056626,sewer_system
29,29,AL00105,CWNS2012,AL,ARDMORE WWTP,ARDMORE,34.9856,-86.8529,0.624,0.8627555055599999,1000010001,AL0023329,sewer_system
30,30,AL00115,CWNS2012,AL,ASHFORD WWTP,ASHFORD,31.1734,-85.2447,0.294,0.406490575,1000011001,AL0057878,sewer_system
31,31,AL00125,CWNS2012,AL,ATHENS WWTP,Athens,34.8302,-86.9652,5,6.913105013,1000012001,AL0020206,sewer_system
32,32,AL00135,CWNS2012,AL,ATTALLA LAGOON,Attalla,33.988,-86.0459,0.96,1.3273161623999998,1000013001,AL0057657,sewer_system
33,33,AL00145,CWNS2012,AL,AUBURN H C MORGAN WWTP,Auburn,32.5361,-85.5078,5.22,7.217281633,1000014001,AL0050237,sewer_system
34,34,AL00155,CWNS2012,AL,AUBURN NORTHSIDE WWTP,Auburn,32.6273,-85.5443,3.74,5.171002549,1000014002,AL0050245,sewer_system
35,35,AL00165,CWNS2012,AL,AUTAUGAVILLE WWTP,Autaugaville,32.4327,-86.6509,0.066,0.091252986,1000015001,AL0057720,sewer_system
36,36,AL00175,CWNS2012,AL,HARRY STILL SR. WWTP,BAY MINETTE,30.8856,-87.7641,1.5,2.073931504,1000016001,AL0049867,sewer_system
37,37,AL00185,CWNS2012,AL,Westside WWTP,Bay Minette,30.8995,-87.7994,0.25,0.3456552506249999,1000016002,AL0027448,sewer_system
38,38,AL00195,CWNS2012,AL,BAYOU LA BATRE WWTP,Bayou La Batre,30.4141,-88.2454,0.9,1.244358902,1000017001,AL0022632,sewer_system
39,39,AL00205,CWNS2012,AL,BOAZ SLAB CREEK WWTP,Boaz,34.1858,-86.1847,3.5,4.839173509,1000021001,AL0049603,sewer_system
40,40,AL00215,CWNS2012,AL,BREWTON LAGOON,BREWTON,31.0824,-87.0898,1.23,1.700623833,1000023001,AL0023825,sewer_system
41,41,AL00225,CWNS2012,AL,NORTH BREWTON LAGOON,BREWTON,31.0824,-87.0898,0.147,0.203245287,1000023002,AL0073580,sewer_system
42,42,AL00235,CWNS2012,AL,BURWELL ROAD WWTP,Harvest,34.833,-86.7166,0.05,0.06913105,1000023390,AL0070947,sewer_system
43,43,AL00245,CWNS2012,AL,Calera WWTP Buxahatchee Creek,Calera,33.0945,-86.8594,0.74,1.023139542,1000027001,AL0050938,sewer_system
44,44,AL00255,CWNS2012,AL,Calera Northside WWTP - Camp Branch,CALERA,33.1517,-86.6925,0.375,0.518482876,1000027002,AL0074608,sewer_system
45,45,AL00265,CWNS2012,AL,CAMP HILL LAGOON,Camp Hill,32.7876,-85.6557,0.05,0.06913105,1000028001,AL0024210,sewer_system
46,46,AL00275,CWNS2012,AL,CARBON HILL WWTP,Carbon Hill,33.883,-87.5099,0.5,0.6913105012499999,1000029001,AL0024341,sewer_system
47,47,AL00285,CWNS2012,AL,CARROLLTON HCR LAGOON,CARROLLTON,33.2548,-88.0832,0.33,0.4562649308249999,1000031001,AL0020907,sewer_system
48,48,AL00295,CWNS2012,AL,CEDAR BLUFF WWTP,Cedar Bluff,34.2311,-85.6036,0.2,0.276524201,1000032001,AL0024678,sewer_system
49,49,AL00305,CWNS2012,AL,CENTREVILLE-BRENT WWTP,Brent,32.9268,-87.1529,0.629,0.869668611,1000034001,AL0044857,sewer_system
50,50,AL00315,CWNS2012,AL,CHATOM LAGOON,Chatom,31.4535,-88.2562,0.136,0.188036456,1000035001,AL0060453,sewer_system
51,51,AL00325,CWNS2012,AL,CHICKASAW LAGOON,Mobile,30.7769,-88.0644,0.956,1.321785678,1000036001,AL0020885,sewer_system
52,52,AL00335,CWNS2012,AL,CHILDERSBURG BAILEY BR LAGOON,CHILDERSBURG,33.2728,-86.3719,0.35,0.4839173508749999,1000037001,AL0021466,sewer_system
53,53,AL00345,CWNS2012,AL,CHILDERSBURG PINECREST LAGOON,Childersburg,33.3043,-86.3465,0.042,0.058070082,1000037002,AL0021458,sewer_system
54,54,AL00355,CWNS2012,AL,CITRONELLE WWTP,Citronelle,31.0845,-88.2458,0.302,0.4175515427549999,1000038001,AL0060887,sewer_system
55,55,AL00365,CWNS2012,AL,COLLINSVILLE LAGOON,Collinsville,34.279,-85.8904,0.24,0.3318290405999999,1000039001,AL0024236,sewer_system
56,56,AL00375,CWNS2012,AL,COLUMBIANA WWTP,Columbiana,33.1775,-86.6241,0.376,0.519865497,1000040001,AL0024589,sewer_system
57,57,AL00385,CWNS2012,AL,CORDOVA WWTP,Cordova,33.7517,-87.1681,0.284,0.392664365,1000041001,AL0020427,sewer_system
58,58,AL00395,CWNS2012,AL,CULLMAN WWTP,CULLMAN,34.1622,-86.8136,2.87,3.968122277,1000043001,AL0050423,sewer_system
59,59,AL00405,CWNS2012,AL,DAPHNE WATER RECLAMATION FACILITY,Daphne,30.6527,-87.925,2.5,3.456552506,1000044001,AL0027561,sewer_system
60,60,AL00415,CWNS2012,AL,DECATUR DRY CREEK WWTP,DECATUR,34.6283,-86.9986,17.62,24.36178206,1000045001,AL0048593,sewer_system
61,61,AL00425,CWNS2012,AL,DEMOPOLIS WWTP,Demopolis,32.5228,-87.9,1.85,2.557848855,1000046001,AL0043168,sewer_system
62,62,AL00435,CWNS2012,AL,EAST WALKER COUNTY WWTP,Dora,33.7343,-87.112,0.064,0.088487744,1000048001,AL0055409,sewer_system
63,63,AL00445,CWNS2012,AL,DOTHAN OMMUSSEE CREEK WWTP,Dothan,31.2542,-85.3722,4.12,5.69639853,1000049002,AL0022764,sewer_system
64,64,AL00455,CWNS2012,AL,DOTHAN LITTLE CHOCTAWHATCHEE WWTP,Dothan,31.2533,-85.5043,5.82,8.046854235,1000049005,AL0047465,sewer_system
65,65,AL00465,CWNS2012,AL,DOUBLE SPRINGS WWTP,Double Springs,34.1436,-87.4179,0.1,0.1382621,1000050001,AL0065480,sewer_system
66,66,AL00475,CWNS2012,AL,ECLECTIC LAGOON & SPRAYFIELD,Elclectic,32.636,-86.0346,0.04,0.05530484,1000051001,AL0067903,sewer_system
67,67,AL00485,CWNS2012,AL,ENTERPRISE WWTP#2(COLLEGE),ENTERPRISE,31.3008,-85.8811,0.63,0.871051232,1000054002,AL0020036,sewer_system
68,68,AL00495,CWNS2012,AL,ENTERPRISE WWTP #3 (SE),ENTERPRISE,31.3058,-85.8036,0.45,0.6221794511250001,1000054003,AL0020044,sewer_system
69,69,AL00505,CWNS2012,AL,ENTERPRISE WWTP #4 (NE),ENTERPRISE,31.3397,-85.8111,1.2,1.659145203,1000054004,AL0020061,sewer_system
70,70,AL00515,CWNS2012,AL,EUTAW LAGOON,Eutaw,32.8218,-87.8798,0.167,0.230897707,1000055004,AL0044067,sewer_system
71,71,AL00525,CWNS2012,AL,FAIRHOPE WWTP,"Fairhope, AL",30.53,-87.9043,1.84,2.544022645,1000057001,AL0020842,sewer_system
72,72,AL00535,CWNS2012,AL,FAYETTE WWTP,FAYETTE,33.672,-87.8201,2.5,3.456552506,1000058001,AL0054640,sewer_system
73,73,AL00545,CWNS2012,AL,FLOMATON LAGOON,Flomaton,31.0085,-87.2512,0.15,0.20739315,1000060001,AL0023493,sewer_system
74,74,AL00555,CWNS2012,AL,DOTHAN CYPRESS CREEK WWTP,Dothan,31.1144,-85.4183,1.322,1.827824965,1000061001,AL0072737,sewer_system
75,75,AL00565,CWNS2012,AL,FOLEY WWTP,Foley,30.4014,-87.6617,1.5,2.073931504,1000062001,AL0049042,sewer_system
76,76,AL00575,CWNS2012,AL,FORT DEPOSIT LAGOON,Fort Deposit,31.9746,-86.5925,0.14,0.19356694,1000064001,AL0024155,sewer_system
77,77,AL00585,CWNS2012,AL,FORT PAYNE WWTP,FORT PAYNE,34.4294,-85.7674,1.5,2.073931504,1000065001,AL0023311,sewer_system
78,78,AL00595,CWNS2012,AL,GADSDEN WEST WWTP,Gadsden,33.9932,-86.0472,5.395,7.459240308487499,1000067001,AL0053201,sewer_system
79,79,AL00605,CWNS2012,AL,GADSDEN EAST WWTP,Gadsden,33.9731,-85.9743,2.543,3.516005209,1000067002,AL0022659,sewer_system
80,80,AL00615,CWNS2012,AL,GARDEN CITY WWTP,Garden City,34.0021,-86.7481,0.05,0.06913105,1000068001,AL0061280,sewer_system
81,81,AL00625,CWNS2012,AL,GLENCOE LAGOON,Glencoe,33.9483,-85.9561,0.36,0.497743561,1000070001,AL0021334,sewer_system
82,82,AL00635,CWNS2012,AL,GOODWATER LAGOON,GOODWATER,33.0418,-86.0475,0.1,0.1382621,1000071001,AL0023582,sewer_system
83,83,AL00645,CWNS2012,AL,GRAYSVILLE PRUDES CR. WWTP,Birmingham,33.6416,-86.9522,0.27,0.373307671,1000072001,AL0056120,sewer_system
84,84,AL00655,CWNS2012,AL,GREENSBORO LAGOON,GREENSBORO,32.7231,-87.5971,0.88,1.216706482,1000073001,AL0057193,sewer_system
85,85,AL00665,CWNS2012,AL,GULF SHORES WWTP,Gulf Shores,30.2766,-87.6666,1.5,2.073931504,1000074001,AL0055841,sewer_system
86,86,AL00675,CWNS2012,AL,GURLEY WWTP,Gurley,34.696,-86.3792,0.227,0.313854968,1000075001,AL0070661,sewer_system
87,87,AL00685,CWNS2012,AL,Beatrice WWTP,Moody,31.6833,-87.218,0.004,0.005530484,1000076101,AL0081175,sewer_system
88,88,AL00695,CWNS2012,AL,HARTFORD LAGOON,HARTFORD,31.1221,-85.6885,0.332,0.459030173,1000078001,AL0058947,sewer_system
89,89,AL00705,CWNS2012,AL,HARTSELLE SHOAL CREEK WWTP,Hartselle,34.4083,-86.9417,1.98,2.7375895849500003,1000079001,AL0054674,sewer_system
90,90,AL00715,CWNS2012,AL,HELENA WWTP,Helena,33.2972,-86.8357,1.54,2.129236344,1000080001,AL0023116,sewer_system
91,91,AL00725,CWNS2012,AL,HOOVER RIVERCHASE WWTP,Hoover,33.3689,-86.7926,1.619,2.238463403,1000083001,AL0041653,sewer_system
92,92,AL00735,CWNS2012,AL,HOOVER INVERNESS WWTP,Hoover,33.4123,-86.7257,0.872,1.205645514,1000083002,AL0025852,sewer_system
93,93,AL00745,CWNS2012,AL,HUNTSVILLE SPRING BRANCH WWTP,Huntsville,34.6709,-86.5979,14.2,19.63321824,1000085001,AL0058394,sewer_system
94,94,AL00755,CWNS2012,AL,HUNTSVILLE CHASE (#3) WWTP,Huntsville,34.7858,-86.4838,0.96,1.3273161623999998,1000085002,AL0057428,sewer_system
95,95,AL00765,CWNS2012,AL,HUNTSVILLE ALDRIDGE CREEK WWTP,Huntsville,34.5888,-86.5611,6,8.295726015,1000085003,AL0056855,sewer_system
96,96,AL00775,CWNS2012,AL,HUNTSVILLE WESTERN AREA WWTP,Huntsville,34.5674,-86.7659,8.11,11.213056330274998,1000085005,AL0049531,sewer_system
97,97,AL00785,CWNS2012,AL,HUNTSVILLE BIG COVE WWTP,Huntsville,34.6422,-86.4669,1.1,1.520883103,1000085007,AL0055042,sewer_system
98,98,AL00795,CWNS2012,AL,HURTSBORO HCR LAGOON,0,32.2329,-85.4083,0.05,0.06913105,1000086001,AL0020699,sewer_system
99,99,AL00805,CWNS2012,AL,Irondale WWTP,Moody,33.5544,-86.6214,0.04,0.05530484,1000086101,AL0078395,sewer_system
100,100,AL00815,CWNS2012,AL,Jasper Town Creek WWTP,Jasper,33.8125,-87.2694,3,4.147863008,1000088001,AL0023418,sewer_system
101,101,AL00825,CWNS2012,AL,Jeff Road WWTP,Harvest,34.7864,-86.7124,0.189,0.261315369,1000088200,AL0068608,sewer_system
102,102,AL00835,CWNS2012,AL,JEMISON WWTP,Jemison,32.957,-86.7733,0.05,0.06913105,1000089001,AL0059331,sewer_system
103,103,AL00845,CWNS2012,AL,Killen WWTP,Killen,34.855,-87.5575,0,0,1000091001,0,no_permit
104,104,AL00855,CWNS2012,AL,LA FAYETTE MILL CREEK WWTP,Lafayette,32.9061,-85.4356,0.26,0.359481461,1000093001,AL0062839,sewer_system
105,105,AL00865,CWNS2012,AL,LANETT WWTP,Lanett,32.8592,-85.1839,1.92,2.654632325,1000094001,AL0023159,sewer_system
106,106,AL00875,CWNS2012,AL,LINEVILLE LAGOON,Lineville,33.2918,-85.75,0.15,0.20739315,1000098001,AL0050644,sewer_system
107,107,AL00885,CWNS2012,AL,LOXLEY LAGOON,LOXLEY,30.6123,-87.7608,0.235,0.324915936,1000101001,AL0060283,sewer_system
108,108,AL00895,CWNS2012,AL,MADISON WWTP,MADISON,34.5528,-86.7589,6,8.295726015,1000102001,AL0071897,sewer_system
109,109,AL00905,CWNS2012,AL,MARGARET WWTP,Moody,33.66,-86.4934,0.017,0.023504557,1000103001,AL0078204,sewer_system
110,110,AL00915,CWNS2012,AL,MARION WWTP,Marion,32.6237,-87.2963,0.578,0.7991549394449999,1000104004,AL0023809,sewer_system
111,111,AL00925,CWNS2012,AL,MONTEVALLO WWTP,Montevallo,33.0983,-86.8671,0.65,0.898703652,1000109001,AL0023299,sewer_system
112,112,AL00935,CWNS2012,AL,MONTGOMERY CATOMA CREEK WWTP,MONTGOMERY,32.3653,-86.4428,14.6,20.18626664,1000110001,AL0027863,sewer_system
113,113,AL00945,CWNS2012,AL,MONTGOMERY ENCONCHATE WWTP,MONTGOMERY,32.423,-86.3033,10.591,14.64333904,1000110002,AL0022225,sewer_system
114,114,AL00955,CWNS2012,AL,MONTGOMERY TOWASSA WWTP,MONTGOMERY,32.3949,-86.3644,1.5,2.073931504,1000110003,AL0022241,sewer_system
115,115,AL00965,CWNS2012,AL,MOODY KELLY CREEK WWTP,MOODY,33.5893,-86.4916,0.26,0.359481461,1000111002,AL0061581,sewer_system
116,116,AL00975,CWNS2012,AL,MOULTON WWTP,Moulton,34.4887,-87.299,1.01,1.3964472125249998,1000114001,AL0020672,sewer_system
117,117,AL00985,CWNS2012,AL,MOUNDVILLE LAGOON,Moundville,33.0007,-87.6422,0.149,0.206010529,1000115001,AL0058122,sewer_system
118,118,AL00995,CWNS2012,AL,NEW HOPE HCR LAGOON,NEW HOPE,34.5301,-86.3886,0.4,0.553048401,1000121001,AL0023761,sewer_system
119,119,AL01005,CWNS2012,AL,NORTHPORT WWTP,Northport,33.2144,-87.5883,2.5,3.456552506,1000123001,AL0064394,sewer_system
120,120,AL01015,CWNS2012,AL,OAKMAN LAGOON (HCR),Oakman,33.7105,-87.3879,0.066,0.091252986,1000124001,AL0025348,sewer_system
121,121,AL01025,CWNS2012,AL,ODENVILLE WWTP,Odenville,33.6796,-86.3974,0.3,0.414786301,1000125001,AL0070084,sewer_system
122,122,AL01035,CWNS2012,AL,OPELIKA EASTSIDE WWTP,Opelika,32.6444,-85.3188,1,1.382621003,1000127002,AL0059218,sewer_system
123,123,AL01045,CWNS2012,AL,OPELIKA WESTSIDE WWTP,OPELIKA,32.6605,-85.4527,4,5.53048401,1000127005,AL0050130,sewer_system
124,124,AL01055,CWNS2012,AL,OPP WESTSIDE WWTP,OPP,31.2846,-86.2848,0.837,1.157253779,1000128002,AL0054313,sewer_system
125,125,AL01065,CWNS2012,AL,OPP EASTSIDE WWTP,Opp,31.2691,-86.2198,0.199,0.275141579,1000128003,AL0021407,sewer_system
126,126,AL01075,CWNS2012,AL,OWENS CROSSROADS WWTP,Owens Cross Roads,34.5876,-86.4638,0.2,0.276524201,1000129001,AL0053228,sewer_system
127,127,AL01085,CWNS2012,AL,OXFORD TULL C ALLEN WWTP,Oxford,33.5851,-85.9007,2.9,4.009600907249999,1000130001,AL0058408,sewer_system
128,128,AL01095,CWNS2012,AL,OZARK NORTHEAST LAGOON,Ozark,31.4571,-85.5847,0.26,0.359481461,1000131002,AL0058688,sewer_system
129,129,AL01105,CWNS2012,AL,OZARK SOUTHSIDE WWTP,OZARK,31.3888,-85.6097,1.01,1.3964472125249998,1000131005,AL0056324,sewer_system
130,130,AL01115,CWNS2012,AL,PARRISH HCR LAGOON,Parrish,33.7194,-87.299,0.1,0.1382621,1000132001,AL0061158,sewer_system
131,131,AL01125,CWNS2012,AL,PHIL CAMPBELL WWTP,Phil Campbell,34.3371,-87.7074,0.225,0.311089726,1000135001,AL0056812,sewer_system
132,132,AL01135,CWNS2012,AL,PRATTVILLE AUTAUGA CREEK WWTP,Prattville,32.4232,-86.4613,2.8,3.871338807,1000139001,AL0026654,sewer_system
133,133,AL01145,CWNS2012,AL,PRATTVILLE PINE CREEK WWTP,Prattville,32.4295,-86.4054,2.8,3.871338807,1000139003,AL0027723,sewer_system
134,134,AL01155,CWNS2012,AL,PRICHARD CARLO A MORRIS WWTP,Prichard,30.7214,-88.0594,2.43,3.359769036,1000140001,AL0023205,sewer_system
135,135,AL01165,CWNS2012,AL,PRICHARD STANLEY BROOKS WWTP,Prichard,30.7864,-88.0983,1.1,1.520883103,1000140002,AL0055204,sewer_system
136,136,AL01175,CWNS2012,AL,RAINBOW CITY LAGOON,Rainbow City,33.9819,-86.9667,1.2,1.659145203,1000141001,AL0056839,sewer_system
137,137,AL01185,CWNS2012,AL,REFORM WWTP,Reform,33.3743,-88.0065,0.217,0.3000287575424999,1000143001,AL0020915,sewer_system
138,138,AL01195,CWNS2012,AL,ROANOKE HCR LAGOON,ROANOKE,33.1594,-85.4017,1.07,1.479404473,1000145002,AL0062715,sewer_system
139,139,AL01205,CWNS2012,AL,ROANOKE FINCHER LAGOON,ROANOKE,33.1594,-85.4017,0.288,0.3981948487199999,1000145003,AL0062715,sewer_system
140,140,AL01215,CWNS2012,AL,ROBERTSDALE WWTP,Robertsdale,30.5533,-87.678,0.78,1.0784443819499998,1000146001,AL0042838,sewer_system
141,141,AL01225,CWNS2012,AL,ROCKFORD WWTP,Rockford,32.8875,-86.2251,0.01,0.01382621,1000147001,AL0062278,sewer_system
142,142,AL01235,CWNS2012,AL,SAMSON LAGOON,Samson,31.1377,-86.0985,0.033,0.045626493,1000149001,AL0068896,sewer_system
143,143,AL01245,CWNS2012,AL,SARALAND WWTP,SARALAND,30.8138,-88.0681,1.74,2.405760544,1000150001,AL0055786,sewer_system
144,144,AL01255,CWNS2012,AL,SATSUMA WWTP,Satsuma,30.8388,-88.0329,0.45,0.6221794511250001,1000152001,AL0063002,sewer_system
145,145,AL01265,CWNS2012,AL,SELMA VALLEY CREEK WWTP,SELMA,32.4039,-87.04,3.57,4.935956979,1000153001,AL0022578,sewer_system
146,146,AL01275,CWNS2012,AL,SHEFFIELD WWTP,Sheffield,34.7583,-87.7176,1.08,1.493230683,1000154001,AL0050121,sewer_system
147,147,AL01285,CWNS2012,AL,SOUTHSIDE LAGOON,Southside,33.9422,-86.025,0.082,0.113374922,1000158001,AL0055867,sewer_system
148,148,AL01295,CWNS2012,AL,SPRINGVILLE LAGOON,Springville,33.7611,-86.4583,0.288,0.3981948487199999,1000160001,AL0050903,sewer_system
149,149,AL01305,CWNS2012,AL,STEELE LAGOON,Steele,33.923056,-86.166111,0.06,0.08295726,1000161001,AL0072729,sewer_system
150,150,AL01315,CWNS2012,AL,STEVENSON WWTP,Stevenson,34.8604,-85.8333,0.25,0.3456552506249999,1000162001,AL0021351,sewer_system
151,151,AL01325,CWNS2012,AL,SYLACAUGA FAIRMONT WWTP,SYLACAUGA,33.1708,-86.2699,0.05,0.06913105,1000165003,AL0020010,sewer_system
152,152,AL01335,CWNS2012,AL,TALLADEGA BRECON WWTP,Talladega,33.4725,-86.0617,0.42,0.580700821,1000168001,AL0022349,sewer_system
153,153,AL01345,CWNS2012,AL,TALLADEGA MAIN WWTP,Talladega,33.4101,-86.1267,3.25,4.493518258,1000168003,AL0022357,sewer_system
154,154,AL01355,CWNS2012,AL,TALLADEGA NIKI-LU WWTP,Talladega,33.4102,-86.1268,0.1,0.1382621,1000168004,AL0059579,sewer_system
155,155,AL01365,CWNS2012,AL,TALLADEGA AIRPORT IND. WWTP,Talladega,33.5708,-86.0625,0.14,0.19356694,1000168005,AL0054658,sewer_system
156,156,AL01375,CWNS2012,AL,TALLASSEE LAGOON,Tallassee,32.5156,-85.8933,0.7,0.967834702,1000169001,AL0020486,sewer_system
157,157,AL01385,CWNS2012,AL,TROY WALNUT CREEK WWTP,Troy,31.7692,-85.9261,3.39,4.687085198,1000174001,AL0032310,sewer_system
158,158,AL01395,CWNS2012,AL,TUSCALOOSA WWTP,Tuscaloosa,33.172,-87.5637,16.7,23.08977074,1000176001,AL0022713,sewer_system
159,159,AL01405,CWNS2012,AL,TUSCUMBIA WWTP,TUSCUMBIA,34.7317,-87.7136,1.44,1.990974244,1000177001,AL0057100,sewer_system
160,160,AL01415,CWNS2012,AL,TUSKEGEE SOUTH WWTP,TUSKEGEE,32.35,-85.7528,0.88,1.216706482,1000178006,AL0025984,sewer_system
161,161,AL01425,CWNS2012,AL,TUSKEGEE NORTH WWTP,TUSKEGEE,32.3622,-85.7508,1.29,1.783581093,1000178007,AL0048763,sewer_system
162,162,AL01435,CWNS2012,AL,WEDOWEE LAGOON,WEDOWEE,33.3151,-85.4821,0.121,0.167297141,1000186001,AL0024171,sewer_system
163,163,AL01445,CWNS2012,AL,WETUMPKA WWTP,Wetumpka,32.5167,-86.2627,1.6,2.212193604,1000188003,AL0064025,sewer_system
164,164,AL01455,CWNS2012,AL,WILSONVILLE WWTP,Wilsonville,33.2354,-86.4802,0.022,0.030417662,1000190001,AL0021491,sewer_system
165,165,AL01465,CWNS2012,AL,WINFIELD WWTP,Winfield,33.9205,-87.8224,0.273,0.377455534,1000192001,AL0023400,sewer_system
166,166,AL01475,CWNS2012,AL,PHENIX CITY WWTP,Phenix City,32.4323,-84.9711,2.87,3.968122277,1000196001,AL0022209,sewer_system
167,167,AL01485,CWNS2012,AL,JEFFERSON COUNTY TURKEY CREEK WWTP,BIRMINGHAM,33.7142,-86.6989,3.37,4.659432778,1000197007,AL0022926,sewer_system
168,168,AL01495,CWNS2012,AL,TRUSSVILLE WWTP,BIRMINGHAM,33.6198,-86.6036,2.1,2.903504105,1000197011,AL0022934,sewer_system
169,169,AL01505,CWNS2012,AL,JEFFERSON COUNTY WARRIOR WWTP,Birmingham,33.8081,-86.8319,0.07,0.09678347,1000197023,AL0050881,sewer_system
170,170,AL01515,CWNS2012,AL,PELHAM WWTP,Pelham,33.2874,-86.791,2.2,3.041766206,1000198001,AL0054666,sewer_system
171,171,AL01525,CWNS2012,AL,LOWER VALLEY WWTP,VALLEY,32.7969,-85.1572,0.89,1.230532692,1000201001,AL0024724,sewer_system
172,172,AL01535,CWNS2012,AL,DAUPHIN ISLAND WWTP,Dauphin Island,30.2634,-88.1159,0.447,0.618031588,1000203001,AL0050547,sewer_system
173,173,AL01545,CWNS2012,AL,ALBERTVILLE EASTSIDE WWTP,ALBERTVILLE,34.2685,-86.2105,6.04,8.351030855,1000205001,AL0020192,sewer_system
174,174,AL01555,CWNS2012,AL,ALICEVILLE EAST LAGOON,Aliceville,33.1162,-88.1348,0.351,0.4852999718774999,1000207001,AL0020770,sewer_system
175,175,AL01565,CWNS2012,AL,ALICEVILLE WEST LAGOON,Aliceville,33.0973,-88.1787,0.995,1.375707897,1000207002,AL0056332,sewer_system
176,176,AL01575,CWNS2012,AL,ARITON LAGOON,Ariton,31.6066,-85.7424,0.03,0.04147863,1000209001,AL0068551,sewer_system
177,177,AL01585,CWNS2012,AL,Blackwater WWTP,Montgomery,30.4631,-87.4803,0.001,0.001382621,1000210000,AL0078034,sewer_system
178,178,AL01595,CWNS2012,AL,ASHLAND WWTP,ASHLAND,33.2742,-85.8101,0.575,0.7950070764374999,1000211001,AL0020141,sewer_system
179,179,AL01605,CWNS2012,AL,Blount County West Lagoon,Cleveland,33.8487,-86.7895,0.055,0.076044155,1000212000,AL0076261,sewer_system
180,180,AL01615,CWNS2012,AL,ASHVILLE LAGOON,ASHVILLE,33.8497,-86.2553,0.105,0.145175205,1000212001,AL0023302,sewer_system
181,181,AL01625,CWNS2012,AL,ATMORE WWTP,ATMORE,31.0166,-87.516,1.46,2.018626664,1000213001,AL0049557,sewer_system
182,182,AL01635,CWNS2012,AL,BERRY WWTP,Berry,33.6463,-87.5959,0.06,0.08295726,1000221001,AL0023922,sewer_system
183,183,AL01645,CWNS2012,AL,BLOUNTSVILLE HCR SYSTEM,Blountsville,34.0794,-86.6086,0.12,0.1659145202999999,1000224001,AL0053643,sewer_system
184,184,AL01655,CWNS2012,AL,BRANTLEY LAGOON,BRANTLEY,31.5882,-86.2581,0.1,0.1382621,1000230001,AL0022641,sewer_system
185,185,AL01665,CWNS2012,AL,BRIDGEPORT LAGOON,BRIDGEPORT,34.9368,-85.7054,0.67,0.926356072,1000231001,AL0020991,sewer_system
186,186,AL01675,CWNS2012,AL,BRILLIANT WWTP,BRILLIANT,34.0254,-87.7473,0.04,0.05530484,1000232001,AL0057169,sewer_system
187,187,AL01685,CWNS2012,AL,BRUNDIDGE WWTP,BRUNDIDGE,31.7048,-85.8367,0.391,0.540604812,1000233001,AL0044105,sewer_system
188,188,AL01695,CWNS2012,AL,BUTLER WWTP,Butler,32.0617,-88.2121,0.25,0.3456552506249999,1000234001,AL0050211,sewer_system
189,189,AL01705,CWNS2012,AL,CAMDEN SOUTH WWTP,CAMDEN,31.978,-87.2943,0.19,0.26269799,1000235001,AL0023680,sewer_system
190,190,AL01715,CWNS2012,AL,CAMDEN NORTH WWTP,CAMDEN,32.0292,-87.3125,0.146,0.2018626663649999,1000235003,AL0023701,sewer_system
191,191,AL01725,CWNS2012,AL,CENTRE LAGOON,CENTRE,34.139,-85.6876,0.51,0.705136711,1000239001,AL0062723,sewer_system
192,192,AL01735,CWNS2012,AL,CHEROKEE WWTP,Cherokee,34.8138,-87.9392,0.11,0.15208831,1000240001,AL0022594,sewer_system
193,193,AL01745,CWNS2012,AL,CLANTON WALNUT CREEK WWTP,Clanton,32.8679,-86.5975,1.64,2.267498444,1000241002,AL0054631,sewer_system
194,194,AL01755,CWNS2012,AL,CLAYTON WWTP,Clayton,31.8851,-85.4863,0.343,0.474239004,1000242003,AL0060461,sewer_system
195,195,AL01765,CWNS2012,AL,Cleveland WWTP,Cleveland,33.9741,-86.5752,0.066,0.091252986,1000243001,AL0073261,sewer_system
196,196,AL01775,CWNS2012,AL,CLIO LAGOON,CLIO,31.7213,-85.6261,0.205,0.283437306,1000244001,AL0067181,sewer_system
197,197,AL01785,CWNS2012,AL,COLUMBIA LAGOON,Columbia,31.2865,-85.1069,0.13,0.17974073,1000247001,AL0058335,sewer_system
198,198,AL01795,CWNS2012,AL,COTTONWOOD LAGOON,Cottonwood,31.0415,-85.2981,0.06,0.08295726,1000248001,AL0024295,sewer_system
199,199,AL01805,CWNS2012,AL,COURTLAND WWTP,Decatur,34.6657,-87.3212,0.09,0.12443589,1000250001,AL0048585,sewer_system
200,200,AL01815,CWNS2012,AL,CROSSVILLE INDUSTRIAL PARK WWTP,Crossville,34.2754,-85.9587,0.006,0.008295726,1000253001,AL0061549,sewer_system
201,201,AL01825,CWNS2012,AL,CUBA WWTP,Cuba,32.4312,-88.366,0.03,0.04147863,1000254001,AL0064386,sewer_system
202,202,AL01835,CWNS2012,AL,DADEVILLE WWTP,Dadeville,32.8163,-85.7602,0.272,0.376072913,1000255002,AL0063797,sewer_system
203,203,AL01845,CWNS2012,AL,DALEVILLE SE LAGOON,Daleville,31.2953,-85.6848,0.309,0.42722989,1000256001,AL0050261,sewer_system
204,204,AL01855,CWNS2012,AL,DALEVILLE WESTSIDE WWTP,Daleville,31.3017,-85.7398,0.195,0.2696110954874999,1000256004,AL0062448,sewer_system
205,205,AL01865,CWNS2012,AL,DOZIER LAGOON,Dozier,31.4935,-86.3666,0.034,0.047009114,1000260001,AL0060518,sewer_system
206,206,AL01875,CWNS2012,AL,EAST BREWTON WWTP,East Brewton,31.0813,-87.0756,0.22,0.304176621,1000262001,AL0022608,sewer_system
207,207,AL01885,CWNS2012,AL,ELBA LAGOON,Elba,31.3988,-86.0725,0.278,0.384368639,1000264001,AL0020940,sewer_system
208,208,AL01895,CWNS2012,AL,PORT OF EPES LAGOON,Epes,32.686,-88.1054,0.013,0.017974073,1000265001,AL0062456,sewer_system
209,209,AL01905,CWNS2012,AL,EUFAULA WWTP,Eufaula,31.8531,-85.14,1.55,2.143062554,1000267002,AL0061671,sewer_system
210,210,AL01915,CWNS2012,AL,EVERGREEN LAGOON,Evergreen,31.4133,-86.9563,0.407,0.5627267480174999,1000270001,AL0047503,sewer_system
211,211,AL01925,CWNS2012,AL,FALKVILLE HCR LAGOON,Falkville,34.3647,-86.9268,0.24,0.3318290405999999,1000272001,AL0021113,sewer_system
212,212,AL01935,CWNS2012,AL,FLORALA/LOCKHART WWTP,LOCKHART,31.0111,-86.35,0.33,0.4562649308249999,1000276002,AL0031925,sewer_system
213,213,AL01945,CWNS2012,AL,GENEVA WWTP,Geneva,31.0328,-85.8858,0.5,0.6913105012499999,1000285001,AL0020273,sewer_system
214,214,AL01955,CWNS2012,AL,GEORGIANA WWTP,Georgiana,31.6364,-86.7276,0.125,0.1728276253124999,1000286001,AL0043532,sewer_system
215,215,AL01965,CWNS2012,AL,GOOD HOPE WWTP,Cullman,34.0953,-86.8829,0.15,0.20739315,1000291001,AL0058343,sewer_system
216,216,AL01975,CWNS2012,AL,GORDO WWTP,Gordo,33.3144,-87.9018,0.2,0.276524201,1000292001,AL0061981,sewer_system
217,217,AL01985,CWNS2012,AL,GRANT WWTP,GRANT,,,0,0,1000295001,0,no_permit
218,218,AL01995,CWNS2012,AL,GREENVILLE WWTP,Greenville,31.7901,-86.6088,1.26,1.742102463,1000296001,AL0020532,sewer_system
219,219,AL02005,CWNS2012,AL,Donaldson WWTP (DOC),Moody,33.5141,-87.1871,0.28,0.387133881,1000296015,AL0045560,sewer_system
220,220,AL02015,CWNS2012,AL,GROVE HILL JAMES CREEK WWTP,Grove Hill,31.7046,-87.7517,0.22,0.304176621,1000298001,AL0026891,sewer_system
221,221,AL02025,CWNS2012,AL,GUIN BEAVER CREEK LAGOON,GUIN,33.967,-87.935,0.41,0.566874611,1000299001,AL0052272,sewer_system
222,222,AL02035,CWNS2012,AL,GUNTERSVILLE WWTP,Guntersville,34.3467,-86.2829,3,4.147863008,1000300001,AL0020150,sewer_system
223,223,AL02045,CWNS2012,AL,HALEYVILLE SOUTH WWTP,Haleyville,34.2145,-87.6394,0.45,0.6221794511250001,1000303001,AL0059455,sewer_system
224,224,AL02055,CWNS2012,AL,HAMILTON WWTP,HAMILTON,34.1083,-87.9972,1.03,1.424099633,1000304001,AL0048372,sewer_system
225,225,AL02065,CWNS2012,AL,HANCEVILLE WWTP,Hanceville,34.0545,-86.7547,0.42,0.580700821,1000305001,AL0057029,sewer_system
226,226,AL02075,CWNS2012,AL,HAYNEVILLE HCR LAGOON,Hayneville,32.1707,-86.5843,0.094,0.129966374,1000307001,AL0050113,sewer_system
227,227,AL02085,CWNS2012,AL,HEADLAND JIMMY CARR WWTP,HEADLAND,31.3244,-85.3373,0.29,0.400960091,1000308001,AL0027014,sewer_system
228,228,AL02095,CWNS2012,AL,HEFLIN LAGOON,Heflin,33.6374,-85.6054,0.36,0.497743561,1000310001,AL0056146,sewer_system
229,229,AL02105,CWNS2012,AL,HENAGAR WWTP,Henagar,34.6294,-85.746,0.1,0.1382621,1000311001,AL0056057,sewer_system
230,230,AL02115,CWNS2012,AL,MOODY HWY 411 WWTP (Moody),Moody,33.5772,-86.5122,0.26,0.359481461,1000312001,AL0055255,sewer_system
231,231,AL02125,CWNS2012,AL,HOLLY POND WWTP,HOLLY POND,34.1778,-86.6036,0.058,0.080192018,1000316001,AL0050768,sewer_system
232,232,AL02135,CWNS2012,AL,HOLLYWOOD LAGOON,Scottsboro,34.7003,-85.938,0.045,0.062217945,1000317001,AL0062944,sewer_system
233,233,AL02145,CWNS2012,AL,JACKSON LAGOON,Jackson,31.4905,-87.8798,0.4,0.553048401,1000318001,AL0020869,sewer_system
234,234,AL02155,CWNS2012,AL,JACKSONVILLE WWTP,Jacksonville,33.8139,-85.7641,1.93,2.668458535,1000319001,AL0022586,sewer_system
235,235,AL02165,CWNS2012,AL,CHEROKEE COUNTY WWTP,Centre,34.1789,-85.7539,0.103,0.142409963,1000325001,AL0057592,sewer_system
236,236,AL02175,CWNS2012,AL,LEIGHTON WWTP,Leighton,34.7832,-87.4262,0.476,0.6581275971899999,1000326001,AL0071901,sewer_system
237,237,AL02185,CWNS2012,AL,East Limestone WWTP,Athens,34.8029,-86.8839,0.021,0.029035041,1000329001,AL0075566,sewer_system
238,238,AL02195,CWNS2012,AL,LINCOLN SOUTH WWTP,Lincoln,33.5917,-86.1714,1.02,1.410273423,1000330001,AL0054356,sewer_system
239,239,AL02205,CWNS2012,AL,LINDEN HCR LAGOON,Linden,32.2939,-87.7941,0.31,0.428612511,1000331001,AL0045683,sewer_system
240,240,AL02215,CWNS2012,AL,NORTH CHOCTAW WWTP,Lisman,32.1853,-88.2847,0.025,0.034565525,1000332001,AL0073270,sewer_system
241,241,AL02225,CWNS2012,AL,LITTLEVILLE WWTP,Russellville,34.5955,-87.6733,0.06,0.08295726,1000334001,AL0056278,sewer_system
242,242,AL02235,CWNS2012,AL,LIVINGSTON MAIN LAGOON,Livingston,32.5761,-88.1836,0.51,0.705136711,1000335001,AL0023256,sewer_system
243,243,AL02245,CWNS2012,AL,LOUISVILLE LAGOON,Louisville,31.8189,-85.5689,0.04,0.05530484,1000336001,AL0070980,sewer_system
244,244,AL02255,CWNS2012,AL,LUVERNE LAGOON,Luverne,31.7111,-86.2864,0.35,0.4839173508749999,1000338001,AL0060534,sewer_system
245,245,AL02265,CWNS2012,AL,MAPLESVILLE WWTP,Maplesville,32.7839,-86.8678,0.015,0.020739315,1000343001,AL0070858,sewer_system
246,246,AL02275,CWNS2012,AL,MIDWAY LAND APPLICATION,Midway,32.0706,-85.5136,0.08,0.1106096801999999,1000345001,AL0070726,sewer_system
247,247,AL02285,CWNS2012,AL,MILLPORT LAGOON,Millport,33.5696,-88.0537,0.23,0.318002831,1000347001,AL0049115,sewer_system
248,248,AL02295,CWNS2012,AL,MILLRY LAGOON,Millry,31.6258,-88.3008,0.04,0.05530484,1000348001,AL0051144,sewer_system
249,249,AL02305,CWNS2012,AL,MONROEVILLE DOUBLE BRANCH WWTP,Monrorville,31.5144,-87.3544,0.74,1.023139542,1000349001,AL0027782,sewer_system
250,250,AL02315,CWNS2012,AL,MONROEVILLE HUDSON BRANCH WWTP,Monroeville,31.5272,-87.3006,0.27,0.373307671,1000349002,AL0022136,sewer_system
251,251,AL02325,CWNS2012,AL,MUSCLE SHOALS WWTP,MUSCLE SHOALS,34.7582,-87.641,2,2.765242005,1000350001,AL0024180,sewer_system
252,252,AL02335,CWNS2012,AL,NEW BROCKTON WWTP,New Brockton,31.3841,-85.9206,0.08,0.1106096801999999,1000353001,AL0055875,sewer_system
253,253,AL02345,CWNS2012,AL,Sumiton Lagoon,Sumiton,33.8124,-87.5223,0.17,0.23504557,1000355001,AL0076244,sewer_system
254,254,AL02355,CWNS2012,AL,NOTASULGA LAGOON AND SPRAYFIELD,Notasulga,32.5604,-85.6704,0.011,0.015208831,1000358001,AL0070939,sewer_system
255,255,AL02365,CWNS2012,AL,ONEONTA WWTP,Oneonta,33.9284,-86.5297,0.8,1.106096802,1000361001,AL0049549,sewer_system
256,256,AL02375,CWNS2012,AL,PELL CITY DYE CREEK WWTP,Pell City,33.5962,-86.2557,1.79,2.474891594,1000364001,AL0045993,sewer_system
257,257,AL02385,CWNS2012,AL,PIEDMONT LAGOON,Piedmont,33.9409,-85.5962,0.46,0.636005661,1000367001,AL0024376,sewer_system
258,258,AL02395,CWNS2012,AL,PINE HILL WWTP,Pine Hill,31.9759,-87.5928,0.06,0.08295726,1000369001,AL0062731,sewer_system
259,259,AL02405,CWNS2012,AL,RAINSVILLE WWTP,Rainsville,34.4794,-85.8681,0.831,1.148958053,1000372001,AL0042765,sewer_system
260,260,AL02415,CWNS2012,AL,Red Bay WWTP,Red Bay,34.47,-88.1417,0.94,1.299663742,1000374001,AL0021245,sewer_system
261,261,AL02425,CWNS2012,AL,Red Eagle Farms WWTP,Montgomery,32.4708,-86.2346,0.045,0.062217945,1000374501,AL0051403,sewer_system
262,262,AL02435,CWNS2012,AL,RUSSELLVILLE WWTP,RUSSELLVILLE,34.4689,-87.7283,2.624,3.627997511,1000380002,AL0027987,sewer_system
263,263,AL02445,CWNS2012,AL,RUTLEDGE WASTEWATER LAGOON,Rutledge,31.7297,-86.3255,0.03,0.04147863,1000381001,AL0062634,sewer_system
264,264,AL02455,CWNS2012,AL,SCOTTSBORO SOUTHSIDE WWTP,Scottsboro,34.6061,-86.0535,3.2,4.424387208,1000383002,AL0031372,sewer_system
265,265,AL02465,CWNS2012,AL,SCOTTSBORO GOOSEPOND WWTP,Scottsboro,34.5739,-86.0783,0.02,0.02765242,1000383003,AL0054461,sewer_system
266,266,AL02475,CWNS2012,AL,SECTION WWTP & COLLECTORS,SECTION,34.5813,-85.9926,0.01,0.01382621,1000384001,AL0053619,sewer_system
267,267,AL02485,CWNS2012,AL,FARQUAR STATE CATTLE RANCH,Montgomery,32.5782,-87.6838,0.038,0.052539598,1000385001,AL0053180,other_system
268,268,AL02495,CWNS2012,AL,DALLAS COUNTY W&S WWTP,Selma,32.3329,-86.9758,0.642,0.887642684,1000385002,AL0043176,sewer_system
269,269,AL02505,CWNS2012,AL,SLOCOMB LAGOON,Slocomb,31.0976,-85.5931,0.084,0.116140164,1000388001,AL0056111,sewer_system
270,270,AL02515,CWNS2012,AL,SNEAD WWTP,SNEAD,34.1323,-86.4113,0.092,0.127201132,1000389001,AL0058572,sewer_system
271,271,AL02525,CWNS2012,AL,SULLIGENT WWTP,Sulligent,33.8983,-88.1444,0.19,0.26269799,1000391001,AL0020826,sewer_system
272,272,AL02535,CWNS2012,AL,THORSBY HCR LAGOON,Thorsby,32.9188,-86.6944,0.14,0.19356694,1000396001,AL0050636,sewer_system
273,273,AL02545,CWNS2012,AL,TOWN CREEK WWTP,TOWN CREEK,34.6961,-87.4118,0.135,0.186653835,1000397001,AL0066974,sewer_system
274,274,AL02555,CWNS2012,AL,UNION SPRINGS SPRAY FIELD,Union Springs,32.1521,-85.7068,1.12,1.5485355228000002,1000400003,AL0060445,sewer_system
275,275,AL02565,CWNS2012,AL,UNIONTOWN WWTP,Uniontown,32.4426,-87.5233,0.5,0.6913105012499999,1000401001,AL0063657,sewer_system
276,276,AL02575,CWNS2012,AL,VERNON YELLOW CREEK LAGOON,Vernon,33.7226,-88.1389,0.44,0.608353241,1000403001,AL0024368,sewer_system
277,277,AL02585,CWNS2012,AL,Wadley Lagoon,Wadley,33.1184,-85.5719,0.122,0.1686797623049999,1000406001,AL0062847,sewer_system
278,278,AL02595,CWNS2012,AL,WEST BLOCTON WWTP,West Blocton,33.1064,-87.1008,0.105,0.145175205,1000409001,AL0074195,sewer_system
279,279,AL02605,CWNS2012,AL,WOODVILLE WWTP,Woodville,34.6261,-86.2665,0.02,0.02765242,1000412001,AL0060526,sewer_system
280,280,AL02615,CWNS2012,AL,YORK LAGOON,York,32.4859,-88.2883,0.11,0.15208831,1000413001,AL0023361,sewer_system
281,281,AL02625,CWNS2012,AL,THOMASVILLE HCR LAGOON,Thomasville,31.8477,-87.7421,0.75,1.036965752,1000414001,AL0056022,sewer_system
282,282,AL02635,CWNS2012,AL,ABBEVILLE SOUTH WWTP,Abbeville,31.4722,-85.1778,0.288,0.3981948487199999,1000418003,AL0059358,sewer_system
283,283,AL02645,CWNS2012,AL,MILLBROOK WWTP,MILLBROOK,32.5259,-86.3648,1.5,2.073931504,1000421001,AL0049921,sewer_system
284,284,AL02655,CWNS2012,AL,Bellamy Lagoon,LIVINGSTON,32.4548,-88.1177,0.049,0.067748429,1000534001,AL0071056,sewer_system
285,285,AL02665,CWNS2012,AL,SYCAMORE WWTP,SYCAMORE,33.245,-86.1975,0.02,0.02765242,1000535001,AL0061573,sewer_system
286,286,AL02675,CWNS2012,AL,PRICEVILLE WWTP,Priceville,34.5518,-86.8813,0.138,0.190801698,1000536001,AL0060577,sewer_system
287,287,AL02685,CWNS2012,AL,IDER WWTP,Ider,34.7,-85.6756,0.016,0.022121936,1000537001,AL0047562,sewer_system
288,288,AL02695,CWNS2012,AL,STONEY CREEK WWTP,Harvest,34.7887,-86.6838,0.027,0.037330767,1000718002,AL0066796,sewer_system
289,289,AL02705,CWNS2012,AL,PINEDALE WWTP,Ashville,33.8356,-86.3033,0.025,0.034565525,1000770001,AL0074616,sewer_system
290,290,AL02715,CWNS2012,AL,VANCE WWTP,Vance,33.1667,-87.2581,0.142,0.196332182,1000797001,AL0070254,sewer_system
291,291,AL02725,CWNS2012,AL,LEEDS (NORMAN R SKINNER) WWTP,Birmingham,33.5349,-86.5606,1.04,1.437925843,1200100001,AL0067067,sewer_system
292,292,AL02735,CWNS2012,AL,JEFFERSON CO VALLEY CREEK WWTP,BIRMINGHAM,33.3928,-87.0083,39.81,55.04214211,1200100002,AL0023655,sewer_system
293,293,AL02745,CWNS2012,AL,JEFFERSON COUNTY FIVE MILE WWTP,BIRMINGHAM,33.5937,-86.8619,13.36,18.47181659,1200100003,AL0026913,sewer_system
294,294,AL02755,CWNS2012,AL,JEFFERSON COUNTY VILLAGE CREEK WWTP,Birmingham,33.5269,-86.888,21.39,29.57426324,1200100006,AL0023647,sewer_system
295,295,AL02765,CWNS2012,AL,ROANOKE SMITH (N) LAGOON,ROANOKE,33.1594,-85.4017,0.198,0.273758958,1200100007,AL0062715,sewer_system
296,296,AL02775,CWNS2012,AL,ROANOKE MCMURRAY LAGOON,ROANOKE,33.1594,-85.4017,0.338,0.467325899,1200100010,AL0062715,sewer_system
297,297,AL02785,CWNS2012,AL,EVA WWTP AND COLLECTION SEWERS,EVA,34.3358,-86.7666,0.011,0.015208831,1200100011,0,no_permit
298,298,AL02795,CWNS2012,AL,SYLACAUGA J EARL HAM WWTP,SYLACAUGA,33.1907,-86.2717,4.8,6.636580812,1200100015,AL0020001,sewer_system
299,299,AL02805,CWNS2012,AL,Mobile Hutchens WWTP,Mobile,30.6128,-88.2722,0.03,0.04147863,1200100024,0,no_permit
300,300,AL02815,CWNS2012,AL,Mobile Copeland Island WWTP,Mobile,30.6128,-88.2722,0.003,0.004147863,1200100025,0,no_permit
301,301,AL02825,CWNS2012,AL,ANNISTON CANE CREEK WWTP,ANNISTON,,,0,0,1200100027,0,no_permit
302,302,AL02835,CWNS2012,AL,Florence Cypress Creek WWTP,Florence,34.7983,-87.7004,7.94,10.97801076,1200100028,AL0023884,sewer_system
303,303,AL02845,CWNS2012,AL,Fountain/Holman Correctional Facility,Montgomery,31.1333,-87.4635,0.335,0.463178036,1201200001,AL0046744,sewer_system
304,304,AL02855,CWNS2012,AL,St. Clair Correctional Facility,Montgomery,33.7439,-86.379,0.22,0.304176621,1201200002,AL0043494,sewer_system
305,305,AL02865,CWNS2012,AL,Limestone Correctional Facility,Montgomery,34.8052,-86.81,0.16,0.2212193603999999,1201200003,AL0048461,sewer_system
306,306,AL02875,CWNS2012,AL,Shorter WWTF,Shorter,32.4019,-85.9706,0.006,0.008295726,1201200004,AL0076317,sewer_system
307,307,AL02885,CWNS2012,AL,Orange Beach WWTP,Orange Beach,30.2908,-87.6386,4.1,5.668746110249999,1201200005,AL0081124,sewer_system
308,308,AL02895,CWNS2012,AL,HUNTERS CROSSING WWTP,HARVEST,34.7781,-86.7527,0.066,0.091252986,1201200006,AL0055158,sewer_system
309,309,AZ00585,CWNS2012,AZ,Phoenix 91st Ave WWTP,Phoenix,33.4267,-112.1064,140,193.5669404,4001318001,AZ0020559,sewer_system
310,310,IL02005,CWNS2012,IL,MORRIS STP & COLLECTION SYSTEM,MORRIS,41.3536,-88.4308,1,1.382621003,17000609001,IL0021113,sewer_system
311,311,AL02940,ICIS2022,AL,CAHABA RIVER WWTP,BIRMINGHAM,33.374344,-86.787014,10.09,13.95064592,1000197004,AL0023027,sewer_system
312,312,AL02975,ICIS2022,AL,CLIFTON C. WILLIAMS WWTP,MOBILE,30.660089,-88.039458,22.17,30.65270763,1000108001,AL0023086,sewer_system
313,313,IL02007,ICIS2022,IL,"MORRIS WWTP #2 - STP, CITY OF",MORRIS,41.371111,-88.405,0.9,1.244358902,,IL0076902,sewer_system
314,314,ND01345,CWNS2012,ND,FINLEY LAGOON,Finley,47.5021,-97.8276,0.06,0.08295726,38000173001,NDG322004,sewer_system
315,315,ND01347,ICIS2022,ND,FINLEY CITY OF,FINLEY,47.501783,-97.827383,6.53,9.028515146,,NDG322004,sewer_system
316,316,PR00005,CWNS2012,PR,Puerto Nuevo-Bayamon WWTP,Hato Rey,18.4456,-66.1522,94,129.9663742,72000001001,PR0023728,sewer_system
317,317,PR00237,ICIS2022,PR,PRASA PUERTO NUEVO WWTP,SAN JUAN,18.431111,-66.085556,80,110.6096802,,PR0021555,sewer_system
318,318,TX01515,CWNS2012,TX,Big Spring WWTP,BIG SPRING,32.2554,-101.4298,2.84,3.926643647,48002015001,TX0047023,sewer_system
319,319,TX01517,ICIS2022,TX,BIG SPRING WATER RECLAMATION PLANT,BIG SPRING,32.257456,-101.43092,0.525,0.7258760263124999,,TX0131857,sewer_system
320,320,AL02900,ICIS2022,AL,ADDISON LAGOON & SPRAYFIELD,ADDISON,34.2,-87.166667,52,71.89629212999999,0,AL0075621,sewer_system
321,321,AL02905,ICIS2022,AL,ALABAMA DEPARTMENT OF CONSERVATION LAKEPOINT STATE PARK,EUFAULA,31.992222,-85.099722,0.15,0.20739315,0,AL0023906,sewer_system
322,322,AL03005,ICIS2022,AL,DELWOOD HCR LAGOON,ORRVILLE,32.274631,-87.273478,0.263,0.363629324,0,AL0048151,sewer_system
323,323,AL03035,ICIS2022,AL,GREENETRACK WWT LAGOON,EUTAW,32.908472,-87.861306,0.489,0.67610167,0,AL0074993,sewer_system
324,324,AL03330,ICIS2022,AL,WRIGHT SMITH JR. WWTP,MOBILE,30.718611,-88.068611,9.59,13.25933541,1000108002,AL0023094,sewer_system
325,325,AL03335,CWNS2012,AL,DEMOPOLIS AIRPORT IND PARK WWTP,DEMOPOLIS,32.4658,-87.9617,0.002,0.002765242,1000046002,0,no_permit
326,326,AL03340,CWNS2012,AL,LOCKHART SEWER COLLECTION  SYSTEM,LOCKHART,31.0111,-86.35,0.33,0.4562649308249999,1000100001,AL0031925,sewer_system
327,327,AL03345,CWNS2012,AL,LEVEL PLAINS COLLECTORS,Level Plains,31.3018,-85.7423,0.03,0.04147863,1000327001,0,no_permit
328,328,AL03350,CWNS2012,AL,Mobile Snow Road WWTP,Mobile,30.7007,-88.2795,0.02,0.02765242,1201200007,0,no_permit
329,329,AR00005,CWNS2012,AR,Little Rock - Fourche Creek WWTP,Little Rock,34.6993,-92.1683,8.995,12.43667592,5000001001,AR0040177,sewer_system
330,330,AR00015,CWNS2012,AR,Little Rock - Adams Field WWTP,Little Rock,34.7353,-92.2164,20.206,27.93723998,5000001008,AR0021806,sewer_system
331,331,AR00025,CWNS2012,AR,Little Rock - Little Maumelle WWTP,Little Rock,34.8206,-92.4876,1.777,2.456917521,5000001009,AR0050849,sewer_system
332,332,AR00035,CWNS2012,AR,Fort Smith - P Street WWTP,Fort Smith,35.4026,-94.4159,7.939,10.97662814,5000002001,AR0033278,sewer_system
333,333,AR00045,CWNS2012,AR,Fort Smith - Massard Creek WWTP,Fort Smith,35.3287,-94.3116,6.768,9.357578944919998,5000002002,AR0021750,sewer_system
334,334,AR00055,CWNS2012,AR,North Little Rock - Faulkner Lake,North Little Rock,34.7391,-92.1798,5.345,7.390109258,5000003002,AR0020303,sewer_system
335,335,AR00065,CWNS2012,AR,North Little Rock - 5 Mile Creek,North Little Rock,34.8039,-92.2011,4.138,5.721285708,5000003003,AR0020320,sewer_system
336,336,AR00075,CWNS2012,AR,North Little Rock - White Oak Bayou,North Little Rock,34.7993,-92.3346,3.123,4.317925391,5000003004,AR0038288,sewer_system
337,337,AR00085,CWNS2012,AR,Pine Bluff WWTP,Pine Bluff,34.275,-91.9664,15.58,21.54123522,5000004003,AR0033316,sewer_system
338,338,AR00095,CWNS2012,AR,Fayetteville - Noland WWTP,Fayetteville,36.0848,-94.0914,5.178,7.159211551,5000005001,AR0020010,sewer_system
339,339,AR00105,CWNS2012,AR,Fayetteville - Westside WWTP,Fayetteville,36.0625,-94.2313,5.798,8.016436572,5000005002,AR0050288,sewer_system
340,340,AR00115,CWNS2012,AR,Jonesboro - West WWTP,Jonesboro,35.8596,-90.7302,1.484,2.051809568,5000006001,AR0037907,sewer_system
341,341,AR00125,CWNS2012,AR,Jonesboro - East WWTP,Jonesboro,35.7914,-90.6308,6.813,9.41979689,5000006002,AR0043401,sewer_system
342,342,AR00135,CWNS2012,AR,West Memphis WWTP,West Memphis,35.1242,-90.179,3.915,5.412961225,5000007001,AR0022039,sewer_system
343,343,AR00145,CWNS2012,AR,El Dorado - South WWTP,El Dorado,33.1734,-92.664,1.955,2.70302406,5000008001,AR0033723,sewer_system
344,344,AR00155,CWNS2012,AR,El Dorado - North WWTP,El Dorado,33.2472,-92.6463,1.975,2.73067648,5000008003,AR0033936,sewer_system
345,345,AR00165,CWNS2012,AR,Blytheville - West WWTP,Blytheville,35.9547,-89.8883,0.624,0.8627555055599999,5000009001,AR0022560,sewer_system
346,346,AR00175,CWNS2012,AR,Blytheville - North WWTP,Blytheville,35.9547,-89.8883,0.443,0.6125011041074999,5000009002,AR0022586,sewer_system
347,347,AR00185,CWNS2012,AR,Blytheville - South WWTP,Blytheville,35.8972,-89.9367,0.649,0.897321031,5000009003,AR0022578,sewer_system
348,348,AR00195,CWNS2012,AR,Jacksonville WWTP,Jacksonville,34.844,-92.1285,5.139,7.1052893318475006,5000010005,AR0041335,sewer_system
349,349,AR00205,CWNS2012,AR,Texarkana - North WWTP,Texarkana,33.5033,-94.0208,0.5,0.6913105012499999,5000011002,AR0048691,sewer_system
350,350,AR00215,CWNS2012,AR,Springdale WWTP,Springdale,36.2112,-94.1603,12.839,17.75147105,5000012001,AR0022063,sewer_system
351,351,AR00225,CWNS2012,AR,Benton WWTP,Benton,34.5549,-92.5939,4.354,6.019931845,5000013001,AR0036498,sewer_system
352,352,AR00235,CWNS2012,AR,Conway - Stone Dam Creek WWTP,Conway,35.0516,-92.4375,3.261,4.508727089,5000014001,AR0033359,sewer_system
353,353,AR00245,CWNS2012,AR,Conway - Tucker Creek WWTP,Conway,35.057,-92.5443,4.337,5.996427288,5000014002,AR0047279,sewer_system
354,354,AR00255,CWNS2012,AR,Conway - Tupelo Bayou WWTP,Conway,35.0537,-92.5369,0,0,5000014003,AR0051951,sewer_system
355,355,AR00265,CWNS2012,AR,Camden WWTP,Camden,33.5911,-92.83,1.686,2.33109901,5000015001,AR0022365,sewer_system
356,356,AR00275,CWNS2012,AR,Forrest City WWTP,Forrest City,35.0011,-90.835,1.699,2.349073083,5000016001,AR0020087,sewer_system
357,357,AR00285,CWNS2012,AR,Russellville WWTP,Russellville,35.2472,-93.1125,5.488,7.587824062,5000017001,AR0021768,sewer_system
358,358,AR00295,CWNS2012,AR,Magnolia WWTP,Magnolia,33.2664,-93.265,1.308,1.808468271,5000018002,AR0043613,sewer_system
359,359,AR00305,CWNS2012,AR,Rogers WWTP,Rogers,36.2979,-94.2123,6.301,8.711894937,5000019001,AR0043397,sewer_system
360,360,AR00315,CWNS2012,AR,Helena/West Helena - W. Helena WWTP,Helena/West Helena,34.5441,-90.6455,0.795,1.0991836969875002,5000020001,AR0022021,sewer_system
361,361,AR00325,CWNS2012,AR,Paragould WWTP,Paragould,36.0331,-90.4928,3.168,4.380143335920001,5000021002,AR0033766,sewer_system
362,362,AR00335,CWNS2012,AR,Stuttgart WWTP,Stuttgart,34.4924,-91.5677,1.458,2.015861422,5000022001,AR0034380,sewer_system
363,363,AR00345,CWNS2012,AR,Helena/West Helena - Helena WWTP,Helena/West Helena,34.5292,-90.5861,1.332,1.841651175,5000023003,AR0043389,sewer_system
364,364,AR00355,CWNS2012,AR,Searcy WWTP,Searcy,35.2683,-91.7161,3.55,4.908304559,5000024001,AR0021601,sewer_system
365,365,AR00365,CWNS2012,AR,Bryant WWTP,Bryant,34.5939,-92.5014,1.805,2.49563091,5000025001,AR0034002,sewer_system
366,366,AR00375,CWNS2012,AR,Bauxite WWTP,Bauxite,34.5603,-92.5059,0.055,0.076044155,5000026001,AR0049786,sewer_system
367,367,AR00385,CWNS2012,AR,Bella Vista WWTP,Bella Vista,36.4933,-94.2661,0.274,0.378838155,5000027001,AR0034258,sewer_system
368,368,AR00395,CWNS2012,AR,Horseshoe Lake WWTP,Horseshoe Lake,34.9231,-90.3042,0.001,0.001382621,5000028001,AR0049531,sewer_system
369,369,AR00405,CWNS2012,AR,Perryville WWTP,Perryville,34.9993,-92.7899,0.052,0.071896292,5000029001,AR0020125,sewer_system
370,370,AR00415,CWNS2012,AR,Newark WWTP,Newark,35.6512,-91.4212,0.119,0.1645318992974999,5000030001,AR0021229,sewer_system
371,371,AR00425,CWNS2012,AR,Humphrey WWTP,Humphrey,34.4182,-91.716,0.023,0.031800283,5000034001,AR0022284,sewer_system
372,372,AR00435,CWNS2012,AR,Jennette WWTP,Crawfordsville,35.1694,-90.4449,0.001,0.001382621,5000039001,AR0048151,sewer_system
373,373,AR00445,CWNS2012,AR,Highland WWTP,Highland,36.2609,-91.5624,0.065,0.089870365,5000041001,AR0050261,sewer_system
374,374,AR00465,CWNS2012,AR,Northwest Arkansas WWTP,Rogers,36.1984,-94.3313,0.779,1.0770617609475002,5000045001,AR0050024,sewer_system
375,375,AR00475,CWNS2012,AR,Saline Co W&SFB WWTP,Alexander,34.6127,-92.4628,0.057,0.078809397,5000047001,AR0044881,sewer_system
376,376,AR00485,CWNS2012,AR,Cherokee Village WWTP,Cherokee Village,36.3042,-91.5125,0.015,0.020739315,5000049001,AR0034282,other_system
377,377,AR00495,CWNS2012,AR,Fairfield Bay - Dave Creek WWTP,Fairfield Bay,35.5964,-92.2622,0.085,0.117522785,5000051001,AR0034401,sewer_system
378,378,AR00505,CWNS2012,AR,Fairfield Bay - Grand Isle WWTP,Fairfield Bay,35.5844,-92.2433,0.004,0.005530484,5000051002,AR0046078,other_system
379,379,AR00515,CWNS2012,AR,Fairfield Bay - Hamilton Hills WWTP,Fairfield Bay,35.577,-92.2789,0.01,0.01382621,5000051003,AR0037303,other_system
380,380,AR00525,CWNS2012,AR,Fairfield Bay - Lynn Creek WWTP,Fairfield Bay,35.5923,-92.2901,0.101,0.139644721,5000051004,AR0044580,sewer_system
381,381,AR00535,CWNS2012,AR,Holiday Island SID WWTP,Holiday Island,36.4978,-93.7498,0.216,0.298646137,5000054001,AR0037249,sewer_system
382,382,AR00545,CWNS2012,AR,Hot Springs Village - Cedar Creek,Hot Springs Village,34.6198,-92.901,0.444,0.613883725,5000055001,AR0039284,sewer_system
383,383,AR00555,CWNS2012,AR,Hot Springs Village - Mill Creek,Hot Springs Village,34.6767,-92.9649,0.638,0.8821122,5000055002,AR0034291,sewer_system
384,384,AR00565,CWNS2012,AR,Sherwood - North WWTP,Sherwood,34.8389,-92.1694,0.357,0.4935956978924999,5000057001,AR0037176,sewer_system
385,385,AR00575,CWNS2012,AR,Sherwood - South WWTP,Sherwood,34.8168,-92.2085,0.346,0.478386867,5000057003,AR0045608,sewer_system
386,386,AR00585,CWNS2012,AR,Horseshoe Bend - White Oak WWTP,Horseshoe Bend,36.2097,-91.7569,0.03,0.04147863,5000058001,AR0035254,sewer_system
387,387,AR00595,CWNS2012,AR,Horseshoe Bend - Paradise Acres STP,Horseshoe Bend,36.2502,-91.7728,0.012,0.016591452,5000058002,AR0039608,sewer_system
388,388,AR00615,CWNS2012,AR,Almyra WWTP,Almyra,34.4128,-91.4572,0.021,0.029035041,5000070001,AR0043761,sewer_system
389,389,AR00625,CWNS2012,AR,DeWitt WWTP,DeWitt,34.2954,-91.2757,0.256,0.353950977,5000071001,AR0021431,sewer_system
390,390,AR00635,CWNS2012,AR,Gillett WWTP,Gillett,34.1229,-91.386,0.034,0.047009114,5000072001,AR0022390,sewer_system
391,391,AR00645,CWNS2012,AR,Saint Charles WWTP,St. Charles,34.3814,-91.1379,0.014,0.019356694,5000073001,AR0049310,sewer_system
392,392,AR00655,CWNS2012,AR,Crossett WWTP,Crossett,33.1122,-92.0028,0.61,0.843398812,5000074001,0,no_permit
393,393,AR00665,CWNS2012,AR,North Crossett WWTP,North Crossett,33.1576,-91.9596,0.284,0.392664365,5000075001,AR0033812,sewer_system
394,394,AR00675,CWNS2012,AR,Fountain Hill WWTP,Fountain Hill,33.361,-91.8624,0.083,0.114757543,5000076001,AR0042421,sewer_system
395,395,AR00685,CWNS2012,AR,Hamburg WWTP,Hamburg,33.2276,-91.7836,0.413,0.571022474,5000077001,AR0034029,sewer_system
396,396,AR00695,CWNS2012,AR,Montrose WWTP,Montrose,33.3056,-91.4722,0.021,0.029035041,5000078001,AR0041297,sewer_system
397,397,AR00705,CWNS2012,AR,Parkdale WWTP,Parkdale,33.1144,-91.5541,0.044,0.060835324,5000079001,AR0050997,sewer_system
398,398,AR00715,CWNS2012,AR,Wilmot WWTP,Wilmot,33.0713,-91.5646,0.115,0.159001415,5000081001,AR0050989,sewer_system
399,399,AR00745,CWNS2012,AR,Mountain Home WWTP,Mountain Home,36.3035,-92.3821,2.226,3.077714352,5000086001,AR0021211,sewer_system
400,400,AR00755,CWNS2012,AR,Norfork WWTP,Norfork,36.2056,-92.286,0.013,0.017974073,5000087001,AR0043036,sewer_system
401,401,AR00765,CWNS2012,AR,Salesville WWTP,Salesville,36.2433,-92.27,0.05,0.06913105,5000088001,0,no_permit
402,402,AR00785,CWNS2012,AR,Cave Springs WWTP,Cave Springs,36.2506,-94.2417,0.12,0.1659145202999999,5000092001,0,no_permit
403,403,AR00795,CWNS2012,AR,Decatur WWTP,Decatur,36.3433,-94.4711,1.19,1.6453189929749998,5000094001,AR0022292,sewer_system
404,404,AR00805,CWNS2012,AR,Gentry WWTP,Gentry,36.2533,-94.5183,0.423,0.5848486840574999,5000097001,AR0020184,sewer_system
405,405,AR00815,CWNS2012,AR,Highfill WWTP,Highfill,36.2567,-94.3272,0.05,0.06913105,5000098001,0,no_permit
406,406,AR00825,CWNS2012,AR,Lost Bridge WWTP,Garfield,36.3845,-93.9171,0.022,0.030417662,5000099001,AR0036676,sewer_system
407,407,AR00835,CWNS2012,AR,Sulphur Springs WWTP,Sulphur Springs,36.4861,-94.4672,0.153,0.2115410133824999,5000103001,AR0051179,sewer_system
408,408,AR00845,CWNS2012,AR,Gravette WWTP,Gravette,36.4109,-94.4627,0.203,0.280672064,5000104001,AR0023833,sewer_system
409,409,AR00855,CWNS2012,AR,Harrison WWTP,Harrison,36.2408,-93.0808,2.303,3.184176169,5000109001,AR0034321,sewer_system
410,410,AR00865,CWNS2012,AR,Sugarloaf WTD WWTP,Diamond City,36.4459,-92.9018,0.078,0.1078444381949999,5000110002,AR0043753,sewer_system
411,411,AR00875,CWNS2012,AR,Banks WWTP,Banks,33.5744,-92.2658,0.003,0.004147863,5000113001,AR0050601,sewer_system
412,412,AR00885,CWNS2012,AR,Hermitage WWTP,Hermitage,33.4483,-92.1831,0.06,0.08295726,5000114001,AR0051055,sewer_system
413,413,AR00895,CWNS2012,AR,Warren WWTP,Warren,33.5897,-92.0219,0.511,0.706519332,5000115001,AR0043427,sewer_system
414,414,AR00905,CWNS2012,AR,Hampton WWTP,Hampton,33.5346,-92.4893,0.216,0.298646137,5000116001,AR0021873,sewer_system
415,415,AR00915,CWNS2012,AR,Harrell WWTP,Harrell,33.5013,-92.4149,0.045,0.062217945,5000117001,AR0042609,sewer_system
416,416,AR00925,CWNS2012,AR,Tinsman WWTP,Banks,33.6244,-92.3303,0.001,0.001382621,5000118001,AR0050661,sewer_system
417,417,AR00935,CWNS2012,AR,Berryville WWTP,Berryville,36.3572,-93.5788,1.52,2.101583924,5000121001,AR0021792,sewer_system
418,418,AR00945,CWNS2012,AR,Eureka Springs WWTP,Eureka Springs,36.4208,-93.7349,0.448,0.619414209,5000123001,AR0021865,sewer_system
419,419,AR00955,CWNS2012,AR,Green Forest WWTP,Green Forest,36.3164,-93.42,1.807,2.498396152,5000124001,AR0021741,sewer_system
420,420,AR00965,CWNS2012,AR,Eudora WWTP,Eudora,33.1087,-91.262,0.031,0.042861251,5000127001,AR0033839,sewer_system
421,421,AR00975,CWNS2012,AR,Lake Village WWTP,Lake Village,33.33,-91.2969,0.274,0.378838155,5000128001,AR0021849,sewer_system
422,422,AR00985,CWNS2012,AR,Amity WWTP,Amity,34.265,-93.4758,0.141,0.1949495613524999,5000129001,AR0051101,sewer_system
423,423,AR00995,CWNS2012,AR,Arkadelphia WWTP,Arkadelphia,34.0842,-93.0514,1.179,1.630110162,5000130001,AR0020605,sewer_system
424,424,AR01005,CWNS2012,AR,Caddo Valley WWTP,Arkadelphia,34.1822,-93.0683,0.066,0.091252986,5000132001,AR0045411,sewer_system
425,425,AR01015,CWNS2012,AR,Gurdon WWTP,Gurdon,33.9332,-93.1429,0.213,0.2944982735324999,5000135001,AR0022551,sewer_system
426,426,AR01025,CWNS2012,AR,Okolona WWTP,Okolona,33.9912,-93.3419,0.007,0.009678347,5000136001,AR0048551,sewer_system
427,427,AR01035,CWNS2012,AR,Corning WWTP,Corning,36.3653,-90.6046,0.045,0.062217945,5000138001,AR0033979,sewer_system
428,428,AR01045,CWNS2012,AR,Greenway WWTP,Greenway,36.3385,-90.2118,0.001,0.001382621,5000139001,AR0051047,sewer_system
429,429,AR01055,CWNS2012,AR,McDougal WWTP,McDougal,36.4373,-90.374,0.001,0.001382621,5000140001,AR0042781,sewer_system
430,430,AR01065,CWNS2012,AR,Piggott WWTP,Piggott,36.3709,-90.1737,0.342,0.472856383,5000143001,AR0033472,sewer_system
431,431,AR01075,CWNS2012,AR,Pollard WWTP,Pollard,36.4361,-90.2725,0.01,0.01382621,5000144001,AR0045489,sewer_system
432,432,AR01085,CWNS2012,AR,Rector WWTP,Rector,36.054,-90.5035,0.216,0.298646137,5000145001,AR0021911,sewer_system
433,433,AR01095,CWNS2012,AR,Saint Francis WWTP,Saint Francis,36.4597,-90.1419,0.012,0.016591452,5000146001,AR0043591,sewer_system
434,434,AR01105,CWNS2012,AR,Success WWTP,Success,36.4495,-90.717,0.013,0.017974073,5000147001,AR0048071,sewer_system
435,435,AR01115,CWNS2012,AR,Knobel WWTP,Knobel,36.3133,-90.5964,0.043,0.059452703,5000148001,AR0043290,sewer_system
436,436,AR01135,CWNS2012,AR,Heber Springs WWTP,Heber Spirngs,35.4808,-91.9881,1.22,1.686797623,5000152001,AR0022381,sewer_system
437,437,AR01145,CWNS2012,AR,Quitman WWTP,Quitman,35.3911,-92.2089,0.05,0.06913105,5000156001,AR0040321,sewer_system
438,438,AR01155,CWNS2012,AR,Rison WWTP,Rison,33.9631,-92.1979,0.082,0.113374922,5000161001,AR0021695,sewer_system
439,439,AR01165,CWNS2012,AR,Emerson WWTP,Emerson,33.0882,-93.1966,0.052,0.071896292,5000164001,AR0039594,sewer_system
440,440,AR01175,CWNS2012,AR,McNeil WWTP,McNeil,33.3528,-93.2208,0.068,0.094018228,5000165001,AR0021555,sewer_system
441,441,AR01185,CWNS2012,AR,Taylor WWTP,Taylor,33.0939,-93.4633,0.056,0.077426776,5000166001,AR0020044,sewer_system
442,442,AR01195,CWNS2012,AR,Morrilton WWTP,Morrilton,35.1328,-92.6834,0.655,0.905616757,5000172002,0,no_permit
443,443,AR01205,CWNS2012,AR,Plumerville WWTP,Plumerville,35.1481,-92.6307,0.085,0.117522785,5000173001,0,no_permit
444,444,AR01215,CWNS2012,AR,Bay WWTP,Bay,35.734,-90.5574,0.14,0.19356694,5000175001,AR0034312,sewer_system
445,445,AR01225,CWNS2012,AR,Bono WWTP,Bono,35.9051,-90.8047,0.142,0.196332182,5000177001,AR0020699,sewer_system
446,446,AR01235,CWNS2012,AR,Brookland WWTP,Brookland,35.9042,-90.5704,0.097,0.134114237,5000178001,AR0037974,sewer_system
447,447,AR01245,CWNS2012,AR,Caraway WWTP,Caraway,35.7652,-90.3117,0.072,0.099548712,5000179001,AR0020028,sewer_system
448,448,AR01255,CWNS2012,AR,Cash WWTP,Cash,35.8009,-90.9368,0.012,0.016591452,5000180001,AR0045284,sewer_system
449,449,AR01265,CWNS2012,AR,Egypt WWTP,Egypt,35.8675,-90.9448,0.001,0.001382621,5000183001,AR0043524,sewer_system
450,450,AR01275,CWNS2012,AR,Monette WWTP,Monette,35.887,-90.3418,0.094,0.129966374,5000184001,AR0033651,sewer_system
451,451,AR01285,CWNS2012,AR,Alma WWTP,Alma,35.4606,-94.1856,0.979,1.353585961,5000185001,AR0021466,sewer_system
452,452,AR01295,CWNS2012,AR,Mountainburg WWTP,Mountainburg,35.6203,-94.1783,0.054,0.074661534,5000191001,AR0021512,sewer_system
453,453,AR01305,CWNS2012,AR,Mulberry WWTP,Mulberry,35.4933,-94.0521,0.434,0.6000575150849999,5000192001,AR0034932,sewer_system
454,454,AR01315,CWNS2012,AR,Van Buren - Main WWTP,Van Buren,35.4177,-94.3409,2.18,3.014113785,5000195001,AR0021482,sewer_system
455,455,AR01325,CWNS2012,AR,Van Buren - North WWTP,Van Buren,35.472,-94.3908,1.068,1.4766392306700002,5000195002,AR0040967,sewer_system
456,456,AR01335,CWNS2012,AR,Crawfordsville WWTP,Crawfordsville,35.2286,-90.3472,0.092,0.127201132,5000199001,AR0022195,sewer_system
457,457,AR01345,CWNS2012,AR,Earle WWTP,Earle,35.2709,-90.4641,0.001,0.001382621,5000200001,AR0034304,sewer_system
458,458,AR01355,CWNS2012,AR,Edmondson WWTP,Edmondson,35.1129,-90.3018,0.015,0.020739315,5000201001,AR0044661,sewer_system
459,459,AR01365,CWNS2012,AR,Gilmore WWTP,Gilmore,35.107,-90.3114,0.001,0.001382621,5000202001,AR0045021,sewer_system
460,460,AR01375,CWNS2012,AR,Marion WWTP,Marion,35.1903,-90.2283,1.218,1.684032381,5000203001,AR0021971,sewer_system
461,461,AR01385,CWNS2012,AR,Turrell WWTP,Turrell,35.3751,-90.2501,0.001,0.001382621,5000207001,AR0021954,sewer_system
462,462,AR01395,CWNS2012,AR,Cherry Valley WWTP,Cherry Valley,35.4023,-90.7676,0.128,0.176975488,5000211001,AR0021393,sewer_system
463,463,AR01405,CWNS2012,AR,Parkin WWTP,Parkin,35.2584,-90.5707,0.001,0.001382621,5000213001,AR0033588,sewer_system
464,464,AR01415,CWNS2012,AR,Sparkman WWTP,Sparkman,33.9212,-92.8579,0.03,0.04147863,5000221001,AR0035939,sewer_system
465,465,AR01425,CWNS2012,AR,Arkansas City WWTP,Arkansas City,33.6534,-91.2068,0.085,0.117522785,5000222001,AR0035751,sewer_system
466,466,AR01435,CWNS2012,AR,Dumas WWTP,Dumas,33.8831,-91.4783,0.836,1.155871158,5000223001,AR0033987,sewer_system
467,467,AR01445,CWNS2012,AR,McGehee WWTP,McGehee,33.6323,-91.3993,0.032,0.044243872,5000226001,AR0022071,sewer_system
468,468,AR01455,CWNS2012,AR,Mitchellville WWTP,Mitchellville,33.917,-91.5048,0.018,0.024887178,5000227001,AR0037125,sewer_system
469,469,AR01465,CWNS2012,AR,Tillar WWTP,Tillar,33.714,-91.4382,0.005,0.006913105,5000232001,AR0033707,sewer_system
470,470,AR01475,CWNS2012,AR,Watson WWTP,Watson,33.8909,-91.2606,0.001,0.001382621,5000233001,AR0021610,sewer_system
471,471,AR01485,CWNS2012,AR,Monticello - West WWTP,Monticello,33.6057,-91.8351,1.065,1.472491368,5000239001,AR0021822,sewer_system
472,472,AR01495,CWNS2012,AR,Monticello - East WWTP,Monticello,33.6625,-91.7583,0.583,0.8060680444574999,5000239002,AR0021831,sewer_system
473,473,AR01505,CWNS2012,AR,Wilmar WWTP,Wilmar,33.6234,-91.9443,0.04,0.05530484,5000241001,AR0040096,sewer_system
474,474,AR01525,CWNS2012,AR,Mayflower WWTP,Mayflower,34.9575,-92.4427,0.158,0.2184541183949999,5000247001,AR0037206,sewer_system
475,475,AR01535,CWNS2012,AR,Altus WWTP,Altus,35.4821,-93.7065,0.026,0.035948146,5000251001,AR0044725,sewer_system
476,476,AR01545,CWNS2012,AR,Charleston WWTP,Charleston,35.2914,-94.0531,0.3,0.414786301,5000254001,AR0033791,sewer_system
477,477,AR01555,CWNS2012,AR,Mammoth Spring WWTP,Mammoth Spring,36.4789,-91.5386,0.096,0.132731616,5000259001,AR0023850,sewer_system
478,478,AR01565,CWNS2012,AR,Salem WWTP,Salem,36.3803,-91.8049,0.185,0.255784885,5000260001,AR0034789,sewer_system
479,479,AR01585,CWNS2012,AR,Mountain Pine WWTP,Mountain Pine,34.5593,-93.1707,0.126,0.174210246,5000266001,AR0021539,sewer_system
480,480,AR01595,CWNS2012,AR,Leola WWTP,Leola,34.1792,-92.5806,0.05,0.06913105,5000268001,0,no_permit
481,481,AR01605,CWNS2012,AR,Poyen WWTP,Poyen,34.3164,-92.6353,0.022,0.030417662,5000269001,AR0048445,sewer_system
482,482,AR01615,CWNS2012,AR,Sheridan WWTP,Sheridan,34.2984,-92.3785,0.486,0.671953807,5000270001,AR0034347,sewer_system
483,483,AR01635,CWNS2012,AR,Lafe WWTP,Lafe,36.2041,-90.5238,0.019,0.026269799,5000274001,AR0048909,sewer_system
484,484,AR01645,CWNS2012,AR,Marmaduke WWTP,Marmaduke,36.1858,-90.3753,0.052,0.071896292,5000276001,AR0035629,sewer_system
485,485,AR01655,CWNS2012,AR,Blevins WWTP,Blevins,33.8986,-93.5708,0.018,0.024887178,5000279001,AR0041688,sewer_system
486,486,AR01665,CWNS2012,AR,Fulton WWTP,Fulton,33.6146,-93.821,0.001,0.001382621,5000281001,AR0048810,sewer_system
487,487,AR01675,CWNS2012,AR,Hope - Bois D'Arc WWTP,Hope,33.6429,-93.6366,0.813,1.124070875,5000282003,AR0038466,sewer_system
488,488,AR01685,CWNS2012,AR,Hope - Pate Creek WWTP,Hope,33.6887,-93.5291,0.478,0.660892839,5000282004,AR0038458,sewer_system
489,489,AR01695,CWNS2012,AR,Perrytown WWTP,Perrytown,33.6909,-93.5202,0.001,0.001382621,5000288001,AR0047180,sewer_system
490,490,AR01705,CWNS2012,AR,Donaldson WWTP,Donaldson,34.2391,-92.9222,0.038,0.052539598,5000291001,AR0048020,sewer_system
491,491,AR01725,CWNS2012,AR,Dierks WWTP,Dierks,34.1136,-94.0092,0.135,0.186653835,5000300001,AR0021709,sewer_system
492,492,AR01735,CWNS2012,AR,Wynne WWTP,Wynne,35.2191,-90.8281,0.919,1.2706287012975002,5000301001,AR0021903,sewer_system
493,493,AR01745,CWNS2012,AR,Osceola WWTP,Osceola,35.6828,-89.9689,2.214,3.0611229,5000302001,AR0021580,sewer_system
494,494,AR01755,CWNS2012,AR,Malvern WWTP,Malvern,34.3607,-92.8618,1.501,2.0753141247524995,5000303001,AR0034126,sewer_system
495,495,AR01765,CWNS2012,AR,Bentonville WWTP,Bentonville,36.3895,-94.2036,4.734,6.545327826,5000304001,AR0022403,sewer_system
496,496,AR01775,CWNS2012,AR,Walnut Ridge WWTP,Walnut Ridge,36.2694,-90.9747,0.663,0.916677725,5000305001,AR0046566,sewer_system
497,497,AR01785,CWNS2012,AR,Ozark WWTP,Ozark,35.5041,-93.8462,0.501,0.692693122,5000306001,AR0021563,sewer_system
498,498,AR01795,CWNS2012,AR,Marked Tree WWTP,Marked Tree,35.5193,-90.404,0.242,0.334594283,5000307002,AR0033430,sewer_system
499,499,AR01805,CWNS2012,AR,Fordyce WWTP,Fordyce,33.8221,-92.3993,0.001,0.001382621,5000308001,AR0033758,sewer_system
500,500,AR01815,CWNS2012,AR,Dermott WWTP,Dermott,33.5206,-91.4094,0.388,0.5364569489700001,5000309002,AR0022250,sewer_system
501,501,AR01825,CWNS2012,AR,Clarendon WWTP,Clarendon,34.6768,-91.3093,0.255,0.352568356,5000310001,AR0021644,sewer_system
502,502,AR01835,CWNS2012,AR,Ashdown WWTP,Ashdown,33.6727,-94.1319,0.584,0.8074506654599999,5000311001,AR0042951,sewer_system
503,503,AR01845,CWNS2012,AR,Waldron WWTP,Waldron,34.9108,-94.105,0.491,0.678866912,5000312001,AR0035769,sewer_system
504,504,AR01855,CWNS2012,AR,Hoxie WWTP,Hoxie,36.0423,-90.9932,0.485,0.670571186,5000313001,AR0020141,sewer_system
505,505,AR01865,CWNS2012,AR,Bald Knob WWTP,Bald Knob,35.2974,-91.5354,0.331,0.457647552,5000314001,AR0035807,sewer_system
506,506,AR01875,CWNS2012,AR,Waldo WWTP,Waldo,33.3431,-93.3033,0.105,0.145175205,5000315001,AR0043508,sewer_system
507,507,AR01885,CWNS2012,AR,Mountain View WWTP,Mountain View,35.8659,-92.1452,0.359,0.49636094,5000316001,AR0020117,sewer_system
508,508,AR01895,CWNS2012,AR,Lepanto WWTP,Lepanto,35.6181,-90.3409,0.154,0.212923634,5000317001,AR0023841,sewer_system
509,509,AR01905,CWNS2012,AR,Harrisburg WWTP,Harrisburg,35.5646,-90.7338,0.288,0.3981948487199999,5000318001,AR0033863,sewer_system
510,510,AR01915,CWNS2012,AR,Wilson WWTP,Wilson,35.554,-90.0576,0.091,0.1258185112274999,5000319001,AR0022314,sewer_system
511,511,AR01925,CWNS2012,AR,Pea Ridge WWTP,Pea Ridge,36.458,-94.1133,0.261,0.360864082,5000320001,AR0020672,sewer_system
512,512,AR01935,CWNS2012,AR,Marshall WWTP,Marshall,35.9051,-92.6399,0.268,0.370542429,5000321001,AR0034011,sewer_system
513,513,AR01945,CWNS2012,AR,Huntsville WWTP,Huntsville,36.1125,-93.7328,1.071,1.480787094,5000322001,AR0022004,sewer_system
514,514,AR01955,CWNS2012,AR,Glenwood WWTP,Glenwood,34.3239,-93.5369,0.146,0.2018626663649999,5000323001,AR0035645,sewer_system
515,515,AR01965,CWNS2012,AR,Danville WWTP,Danville,35.0575,-93.3915,0.286,0.3954296067149999,5000324001,AR0022241,sewer_system
516,516,AR01975,CWNS2012,AR,Yellville WWTP,Yellville,36.2209,-92.6641,0.212,0.293115653,5000326001,AR0034037,sewer_system
517,517,AR01985,CWNS2012,AR,Ward WWTP,Ward,35.0143,-91.9699,0.547,0.756293688,5000327001,AR0047554,sewer_system
518,518,AR01995,CWNS2012,AR,Strong WWTP,Strong,33.1093,-92.3482,0.01,0.01382621,5000328001,AR0021687,sewer_system
519,519,AR02005,CWNS2012,AR,Mansfield WWTP,Mansfield,35.0633,-94.2522,0.164,0.226749844,5000331001,AR0036293,sewer_system
520,520,AR02015,CWNS2012,AR,Lake City WWTP,Lake City,35.8104,-90.4326,0.187,0.258550127,5000333001,AR0034134,sewer_system
521,521,AR02025,CWNS2012,AR,Western Lawrence Co WWTD,Strawberry,35.9867,-91.2943,0.097,0.134114237,5000334001,AR0048488,sewer_system
522,522,AR02035,CWNS2012,AR,Greenbrier WWTP,Greenbrier,35.221,-92.3995,0.425,0.587613926,5000335001,AR0036536,sewer_system
523,523,AR02045,CWNS2012,AR,East Camden - Shumaker PSC,East Camden,33.6174,-92.7214,0.298,0.412021059,5000336001,AR0034363,sewer_system
524,524,AR02055,CWNS2012,AR,Carthage WWTP,Carthage,34.0581,-92.5492,0.001,0.001382621,5000338001,AR0033715,sewer_system
525,525,AR02065,CWNS2012,AR,Bradford WWTP,Bradford,35.4178,-91.458,0.065,0.089870365,5000339001,AR0050911,sewer_system
526,526,AR02075,CWNS2012,AR,Widener WWTP,Widener,35.0164,-90.6886,0.001,0.001382621,5000341001,AR0051063,sewer_system
527,527,AR02085,CWNS2012,AR,Vilonia WWTP,Vilonia,35.0718,-92.1631,0.234,0.323533315,5000342001,AR0047121,sewer_system
528,528,AR02095,CWNS2012,AR,Thornton WWTP,Thornton,33.7644,-92.4925,0.03,0.04147863,5000343001,AR0035661,sewer_system
529,529,AR02105,CWNS2012,AR,Rondo WWTP,Rondo,34.6668,-90.8296,0.001,0.001382621,5000345001,AR0045373,sewer_system
530,530,AR02115,CWNS2012,AR,Perry WWTP,Perry,35.0525,-92.7939,0.03,0.04147863,5000347001,0,no_permit
531,531,AR02125,CWNS2012,AR,Oxford WWTP,Oxford,36.2148,-91.9175,0.013,0.017974073,5000348001,AR0049701,sewer_system
532,532,AR02135,CWNS2012,AR,Norman WWTP,Norman,34.452,-93.6794,0.035,0.048391735,5000349001,AR0043125,sewer_system
533,533,AR02145,CWNS2012,AR,Menifee WWTP,Menifee,35.1425,-92.5527,0.051,0.070513671,5000350001,AR0049361,sewer_system
534,534,AR02155,CWNS2012,AR,Kingsland WWTP,Kingsland,33.8626,-92.2828,0.042,0.058070082,5000352001,AR0043672,sewer_system
535,535,AR02165,CWNS2012,AR,Imboden WWTP,Imboden,36.1942,-91.1624,0.053,0.073278913,5000353001,AR0021628,sewer_system
536,536,AR02175,CWNS2012,AR,Hickory Ridge WWTP,Hickory Ridge,35.4126,-91.0293,0.002,0.002765242,5000354001,AR0034720,sewer_system
537,537,AR02185,CWNS2012,AR,Grubbs WWTP,Grubbs,35.6497,-91.0561,0.092,0.127201132,5000356001,AR0034614,sewer_system
538,538,AR02195,CWNS2012,AR,Cotter-Gassville WWTP,Gassville,36.2695,-92.5241,0.224,0.309707105,5000357001,AR0033545,sewer_system
539,539,AR02205,CWNS2012,AR,Dyess WWTP,Dyess,35.5908,-90.2217,0.008,0.011060968,5000359002,AR0039047,sewer_system
540,540,AR02215,CWNS2012,AR,Delight WWTP,Delight,34.0294,-93.4919,0.027,0.037330767,5000360001,AR0041432,sewer_system
541,541,AR02225,CWNS2012,AR,Cove WWTP,Cove,34.4228,-94.4051,0.046,0.063600566,5000361001,AR0049247,sewer_system
542,542,AR02235,CWNS2012,AR,Bull Shoals WWTP,Bull Shoals,36.3592,-92.5947,0.154,0.212923634,5000363001,AR0037028,sewer_system
543,543,AR02255,CWNS2012,AR,Bassett WWTP,Bassett,35.5287,-90.1353,0.007,0.009678347,5000366001,AR0046272,sewer_system
544,544,AR02265,CWNS2012,AR,Ravenden Springs WWTP,Ravenden Springs,36.1792,-90.8504,0.001,0.001382621,5000374001,AR0048712,sewer_system
545,545,AR02275,CWNS2012,AR,Oppelo WWTP,Oppelo,35.0756,-92.7554,0.035,0.048391735,5000376001,AR0047643,sewer_system
546,546,AR02285,CWNS2012,AR,Nimmons WWTP,Nimmons,36.3097,-90.0994,0.003,0.004147863,5000377001,AR0042196,sewer_system
547,547,AR02295,CWNS2012,AR,Beedeville WWTP,Beedeville,35.4369,-91.1342,0.004,0.005530484,5000386001,AR0049603,sewer_system
548,548,AR02305,CWNS2012,AR,Mineral Springs WWTP,Mineral Springs,33.869,-93.9141,0.109,0.150705689,5000400001,AR0021261,sewer_system
549,549,AR02315,CWNS2012,AR,Nashville WWTP,Nashville,34.0543,-93.7064,1.254,1.733806737,5000401001,AR0021776,sewer_system
550,550,AR02325,CWNS2012,AR,Tollette WWTP,Mineral Springs,33.8131,-93.9061,0.001,0.001382621,5000404001,AR0045144,sewer_system
551,551,AR02335,CWNS2012,AR,Batesville WWTP,Batesville,35.7525,-91.6311,3.823,5.285760093,5000406001,AR0020702,sewer_system
552,552,AR02345,CWNS2012,AR,Oil Trough WWTP,Oil Trough,35.6351,-91.4326,0.004,0.005530484,5000416001,AR0047597,sewer_system
553,553,AR02355,CWNS2012,AR,Sulphur Rock WWTP,Sulphur Rock,35.7404,-91.5023,0.028,0.038713388,5000419001,AR0046680,sewer_system
554,554,AR02365,CWNS2012,AR,Calico Rock WWTP,Calico Rock,36.1161,-92.1417,0.084,0.116140164,5000421001,AR0034606,sewer_system
555,555,AR02375,CWNS2012,AR,Melbourne WWTP,Melbourne,36.0594,-91.9271,0.184,0.254402264,5000425001,AR0020036,sewer_system
556,556,AR02385,CWNS2012,AR,Amagon WWTP,Amagon,35.563,-91.1113,0.009,0.012443589,5000428001,AR0046604,sewer_system
557,557,AR02395,CWNS2012,AR,Diaz WWTP,Diaz,35.6442,-91.2381,0.032,0.044243872,5000431001,AR0041033,sewer_system
558,558,AR02405,CWNS2012,AR,Newport WWTP,Newport,35.5923,-91.2472,1.136,1.570657459,5000434002,AR0037044,sewer_system
559,559,AR02415,CWNS2012,AR,Swifton WWTP,Swifton,35.8229,-91.1412,0.04,0.05530484,5000436001,AR0034860,sewer_system
560,560,AR02425,CWNS2012,AR,Tuckerman WWTP,Tuckerman,35.7191,-91.1871,0.001,0.001382621,5000437001,AR0020001,sewer_system
561,561,AR02435,CWNS2012,AR,Altheimer WWTP,Altheimer,34.2668,-91.8937,0.014,0.019356694,5000440001,AR0034771,sewer_system
562,562,AR02445,CWNS2012,AR,Redfield WWTP,Redfield,34.449,-92.1676,0.061,0.084339881,5000443001,AR0039357,sewer_system
563,563,AR02465,CWNS2012,AR,Wabbaseka WWTP,Wabbaseka,34.339,-91.8154,0.024,0.033182904,5000449001,AR0039896,sewer_system
564,564,AR02475,CWNS2012,AR,Clarksville WWTP,Clarksville,35.4459,-93.4835,1.476,2.0407486,5000453001,AR0022187,sewer_system
565,565,AR02485,CWNS2012,AR,Coal Hill WWTP,Coal Hill,35.419,-93.6734,0.071,0.098166091,5000454001,AR0047686,sewer_system
566,566,AR02495,CWNS2012,AR,Lamar WWTP,Lamar,35.4454,-93.3936,0.068,0.094018228,5000457001,AR0035491,sewer_system
567,567,AR02505,CWNS2012,AR,Bradley WWTP,Bradley,33.0875,-93.6583,0.056,0.077426776,5000461001,AR0020621,sewer_system
568,568,AR02515,CWNS2012,AR,Lewisville WWTP,Lewisville,33.3497,-93.5742,0.099,0.136879479,5000464001,AR0035696,sewer_system
569,569,AR02525,CWNS2012,AR,Stamps WWTP,Stamps,33.3587,-93.5244,0.245,0.338742146,5000465001,AR0048305,sewer_system
570,570,AR02535,CWNS2012,AR,Alicia WWTP,Alicia,35.8908,-91.0797,0.002,0.002765242,5000466001,AR0039675,sewer_system
571,571,AR02545,CWNS2012,AR,Black Rock WWTP,Black Rock,36.1109,-91.0904,0.052,0.071896292,5000467001,AR0037508,sewer_system
572,572,AR02555,CWNS2012,AR,Portia WWTP,Portia,36.1148,-91.071,0.006,0.008295726,5000473001,AR0040355,sewer_system
573,573,AR02565,CWNS2012,AR,Ravenden  WWTP,Ravenden,36.2325,-91.2475,0.055,0.076044155,5000475001,AR0041254,sewer_system
574,574,AR02575,CWNS2012,AR,Sedgwick WWTP,Sedgwick,35.9681,-90.8626,0.022,0.030417662,5000477001,AR0043443,sewer_system
575,575,AR02585,CWNS2012,AR,Aubrey WWTP,Aubrey,34.7057,-90.8906,0.055,0.076044155,5000480001,AR0038784,sewer_system
576,576,AR02595,CWNS2012,AR,Marianna - East WWTP,Marianna,34.7782,-90.7501,0.29,0.400960091,5000484001,AR0034169,sewer_system
577,577,AR02605,CWNS2012,AR,Marianna - North WWTP,Marianna,34.7918,-90.7623,0.105,0.145175205,5000484002,AR0034142,sewer_system
578,578,AR02615,CWNS2012,AR,Moro WWTP,Moro,34.7869,-90.9817,0.024,0.033182904,5000485001,AR0038237,sewer_system
579,579,AR02625,CWNS2012,AR,Gould WWTP,Gould,33.9808,-91.5458,0.139,0.192184319,5000488001,AR0021679,sewer_system
580,580,AR02635,CWNS2012,AR,Grady WWTP,Grady,34.0958,-91.6667,0.059,0.081574639,5000489001,AR0039381,sewer_system
581,581,AR02645,CWNS2012,AR,Star City WWTP,Star City,33.9534,-91.8196,0.262,0.362246703,5000491001,AR0046477,sewer_system
582,582,AR02655,CWNS2012,AR,Foreman WWTP,Foreman,33.7069,-94.4025,0.198,0.273758958,5000495001,AR0023817,sewer_system
583,583,AR02665,CWNS2012,AR,Wilton WWTP,Wilton,33.7454,-94.1463,0.027,0.037330767,5000499001,AR0040886,sewer_system
584,584,AR02675,CWNS2012,AR,Hot Springs - Southwest WWTP,Hot Springs,34.4223,-93.1994,0.28,0.387133881,5000500001,AR0050148,sewer_system
585,585,AR02685,CWNS2012,AR,Hot Springs - Regional WWTP,Hot Springs,34.4504,-93.0175,9.829,13.589781833572502,5000500002,AR0033880,sewer_system
586,586,AR02695,CWNS2012,AR,Booneville WWTP,Booneville,35.13,-93.9185,0.531,0.734171752,5000502001,AR0021571,sewer_system
587,587,AR02705,CWNS2012,AR,Magazine WWTP,Magazine,35.1469,-93.8011,0.048,0.066365808,5000504001,AR0037397,sewer_system
588,588,AR02715,CWNS2012,AR,Paris WWTP,Paris,35.3022,-93.7383,0.541,0.747997962,5000507001,AR0021857,sewer_system
589,589,AR02735,CWNS2012,AR,Subiaco WWTP,Subiaco,35.3029,-93.6252,0.039,0.053922219,5000510001,AR0040991,sewer_system
590,590,AR02745,CWNS2012,AR,Austin WWTP,Austin,35.0038,-91.9813,0.046,0.063600566,5000512001,AR0038369,sewer_system
591,591,AR02755,CWNS2012,AR,Cabot WWTP,Cabot,34.9532,-92.0284,2.459,3.399865045,5000513001,AR0021661,sewer_system
592,592,AR02765,CWNS2012,AR,Carlisle WWTP,Carlisle,34.7683,-91.7515,0.444,0.613883725,5000514001,AR0033740,sewer_system
593,593,AR02775,CWNS2012,AR,England WWTP,England,34.5426,-91.9868,0.121,0.167297141,5000516001,AR0022128,sewer_system
594,594,AR02785,CWNS2012,AR,Keo WWTP,Keo,34.6043,-91.9957,0.001,0.001382621,5000518001,AR0037613,sewer_system
595,595,AR02795,CWNS2012,AR,Lonoke WWTP,Lonoke,34.7965,-91.8863,0.801,1.107479423,5000519001,AR0034746,sewer_system
596,596,AR02805,CWNS2012,AR,Flippin WWTP,Flippin,36.2821,-92.5843,0.176,0.2433412964399999,5000529001,AR0021717,sewer_system
597,597,AR02815,CWNS2012,AR,Fouke WWTP,Fouke,33.2581,-93.9014,0.003,0.004147863,5000535001,AR0041548,sewer_system
598,598,AR02825,CWNS2012,AR,Garland WWTP,Garland,33.338,-93.7093,0.001,0.001382621,5000536001,AR0050857,sewer_system
599,599,AR02835,CWNS2012,AR,Burdette WWTP,Burdette,35.8186,-89.9408,0.001,0.001382621,5000538001,AR0044237,sewer_system
600,600,AR02845,CWNS2012,AR,Etowah WWTP,Etowah,35.7277,-90.2693,0.03,0.04147863,5000541001,AR0050741,sewer_system
601,601,AR02855,CWNS2012,AR,Gosnell WWTP,Gosnell,35.9573,-89.9651,0.32,0.4424387207999999,5000543001,AR0021962,sewer_system
602,602,AR02865,CWNS2012,AR,Joiner WWTP,Joiner,35.5044,-90.1611,0.014,0.019356694,5000544001,AR0022152,sewer_system
603,603,AR02875,CWNS2012,AR,Keiser WWTP,Keiser,35.6692,-90.1464,0.156,0.2156888763899999,5000545001,AR0034754,sewer_system
604,604,AR02885,CWNS2012,AR,Leachville WWTP,Leachville,35.7599,-90.326,0.148,0.2046279083699999,5000546001,AR0022012,sewer_system
605,605,AR02895,CWNS2012,AR,Luxora WWTP,Luxora,35.7594,-89.91,0.039,0.053922219,5000547001,AR0033782,sewer_system
606,606,AR02905,CWNS2012,AR,Manila WWTP,Manila,35.8437,-90.1395,0.283,0.3912817437074999,5000548001,AR0021881,sewer_system
607,607,AR02915,CWNS2012,AR,Birdsong WWTP,Tyronza,35.4599,-90.2569,0.001,0.001382621,5000552001,AR0045934,sewer_system
608,608,AR02925,CWNS2012,AR,Brinkley WWTP,Brinkley,34.8857,-91.1946,0.252,0.348420493,5000557001,AR0021890,sewer_system
609,609,AR02935,CWNS2012,AR,Holly Grove WWTP,Holly Grove,34.5848,-91.1976,0.001,0.001382621,5000559001,AR0022438,sewer_system
610,610,AR02945,CWNS2012,AR,Roe WWTP,Roe,34.6244,-91.3897,0.01,0.01382621,5000562001,0,no_permit
611,611,AR02955,CWNS2012,AR,Mount Ida WWTP,Mount Ida,34.5612,-93.6296,0.195,0.2696110954874999,5000565001,AR0033855,sewer_system
612,612,AR02965,CWNS2012,AR,Emmet WWTP,Emmet,33.6992,-93.4581,0.001,0.001382621,5000571001,AR0041815,sewer_system
613,613,AR02975,CWNS2012,AR,Prescott WWTP,Prescott,33.7836,-93.3533,0.648,0.89593841,5000573001,AR0033481,sewer_system
614,614,AR02985,CWNS2012,AR,Jasper WWTP,Jasper,36.0092,-93.178,0.159,0.219836739,5000580001,AR0034584,sewer_system
615,615,AR02995,CWNS2012,AR,Bearden WWTP,Bearden,33.6912,-92.6352,0.13,0.17974073,5000585001,AR0021474,sewer_system
616,616,AR03005,CWNS2012,AR,Chidester WWTP,Chidester,33.7306,-93.0212,0.03,0.04147863,5000587001,0,no_permit
617,617,AR03015,CWNS2012,AR,Louann WWTP,Louann,33.3882,-92.7993,0.001,0.001382621,5000589001,AR0040517,sewer_system
618,618,AR03025,CWNS2012,AR,Stephens WWTP,Stephens,33.3932,-93.0613,0.126,0.174210246,5000591001,AR0020168,sewer_system
619,619,AR03045,CWNS2012,AR,Elaine WWTP,Elaine,34.3067,-90.8647,0.048,0.066365808,5000599001,AR0022420,sewer_system
620,620,AR03055,CWNS2012,AR,Lexa WWTP,Lexa,34.6019,-90.7483,0.051,0.070513671,5000601001,AR0041092,sewer_system
621,621,AR03065,CWNS2012,AR,Marvell WWTP,Marvell,34.5501,-90.9026,0.164,0.226749844,5000603001,AR0035840,sewer_system
622,622,AR03075,CWNS2012,AR,Murfreesboro WWTP,Murfreesboro,34.0496,-93.6818,0.488,0.6747190492199999,5000612001,AR0043281,sewer_system
623,623,AR03085,CWNS2012,AR,Fisher WWTP,Fisher,35.4934,-90.9846,0.009,0.012443589,5000616001,AR0022446,sewer_system
624,624,AR03095,CWNS2012,AR,Trumann WWTP,Trumann,35.6735,-90.5068,0.507,0.700988848,5000619001,AR0035602,sewer_system
625,625,AR03105,CWNS2012,AR,Tyronza WWTP,Tyronza,35.4806,-90.3448,0.102,0.141027342,5000620001,AR0035637,sewer_system
626,626,AR03115,CWNS2012,AR,Weiner WWTP,Weiner,35.624,-90.9154,0.09,0.12443589,5000622001,AR0020354,sewer_system
627,627,AR03125,CWNS2012,AR,Hatfield WWTP,Hatfield,34.4969,-94.3906,0.019,0.026269799,5000624001,AR0035483,sewer_system
628,628,AR03135,CWNS2012,AR,Mena WWTP,Mena,34.5629,-94.1869,1.173,1.6218144359325002,5000626001,AR0036692,sewer_system
629,629,AR03145,CWNS2012,AR,Atkins - North WWTP,Atkins,35.1739,-92.9097,0.721,0.9968697428024998,5000629001,AR0034665,sewer_system
630,630,AR03155,CWNS2012,AR,Atkins - South WWTP,Atkins,35.2158,-92.9386,0.086,0.1189054062149999,5000629002,AR0034673,sewer_system
631,631,AR03165,CWNS2012,AR,Dover WWTP,Dover,,,0,0,5000630002,0,no_permit
632,632,AR03175,CWNS2012,AR,London WWTP,London,,,0,0,5000632001,0,no_permit
633,633,AR03185,CWNS2012,AR,Pottsville WWTP,Pottsville,35.2264,-93.0431,0.092,0.127201132,5000634001,AR0048011,sewer_system
634,634,AR03195,CWNS2012,AR,Des Arc WWTP,Des Arc,34.9619,-91.4878,0.364,0.5032740449099999,5000638001,AR0022225,sewer_system
635,635,AR03205,CWNS2012,AR,De Valls Bluff WWTP,De Valls Bluff,34.7806,-91.4431,0.045,0.062217945,5000639001,AR0035611,sewer_system
636,636,AR03215,CWNS2012,AR,Hazen WWTP,Hazen,34.7889,-91.5619,0.15,0.20739315,5000641001,AR0022411,sewer_system
637,637,AR03225,CWNS2012,AR,Ulm WWTP,Ulm,34.5714,-91.4569,0.012,0.016591452,5000644001,AR0038008,sewer_system
638,638,AR03235,CWNS2012,AR,Biscoe WWTP,Biscoe,34.7873,-91.4318,0.001,0.001382621,5000647001,AR0047589,sewer_system
639,639,AR03245,CWNS2012,AR,Gravel Ridge SID #213 WWTP,Gravel Ridge,34.8607,-92.188,0.107,0.147940447,5000648001,AR0033642,sewer_system
640,640,AR03255,CWNS2012,AR,Maumelle WWTP,Maumelle,34.8515,-92.3978,1.813,2.506691878,5000652001,AR0033626,sewer_system
641,641,AR03265,CWNS2012,AR,Wrightsville WWTP,Wrightsville,34.615,-92.2108,0.252,0.348420493,5000657001,AR0051021,sewer_system
642,642,AR03275,CWNS2012,AR,Biggers WWTP,Biggers,36.3392,-90.8161,0.05,0.06913105,5000658001,0,no_permit
643,643,AR03285,CWNS2012,AR,Maynard WWTP,Maynard,36.4167,-90.9117,0.026,0.035948146,5000659001,AR0043834,sewer_system
644,644,AR03295,CWNS2012,AR,Pocahontas WWTP,Pocahontas,36.26,-90.9697,0.569,0.78671135,5000661001,AR0034835,sewer_system
645,645,AR03305,CWNS2012,AR,Reyno WWTP,Reyno,36.3547,-90.7675,0.001,0.001382621,5000662001,AR0022209,sewer_system
646,646,AR03315,CWNS2012,AR,Colt WWTP,Colt,35.1318,-90.8065,0.001,0.001382621,5000664001,AR0043192,sewer_system
647,647,AR03325,CWNS2012,AR,Hughes WWTP,Hughes,34.9376,-90.4793,0.008,0.011060968,5000667001,AR0021547,sewer_system
648,648,AR03335,CWNS2012,AR,Madison WWTP,Madison,35.004,-90.7109,0.214,0.295880895,5000668001,AR0037893,sewer_system
649,649,AR03345,CWNS2012,AR,Palestine WWTP,Palestine,34.9649,-90.9129,0.064,0.088487744,5000669001,AR0039365,sewer_system
650,650,AR03355,CWNS2012,AR,Wheatley WWTP,Wheatley,34.9175,-91.1231,0.078,0.1078444381949999,5000671001,AR0036315,sewer_system
651,651,AR03365,CWNS2012,AR,Haskell - South WWTP,Haskell,34.4887,-92.6271,0.415,0.5737877160374999,5000674001,AR0044547,sewer_system
652,652,AR03375,CWNS2012,AR,Haskell - North WWTP,Haskell,34.5204,-92.6334,0,0,5000674002,AR0051713,sewer_system
653,653,AR03385,CWNS2012,AR,Shannon Hills WWTP,Shannon Hills,34.619,-92.401,0.443,0.6125011041074999,5000677001,AR0050636,sewer_system
654,654,AR03395,CWNS2012,AR,Leslie WWTP,Leslie,35.8251,-92.5568,0.053,0.073278913,5000685001,AR0034657,sewer_system
655,655,AR03405,CWNS2012,AR,Barling WWTP,Barling,35.3306,-94.2627,3.013,4.165837081,5000689001,AR0048801,sewer_system
656,656,AR03425,CWNS2012,AR,Greenwood WWTP,Greenwood,35.2083,-94.2472,0.728,1.00654809,5000693001,AR0022454,sewer_system
657,657,AR03435,CWNS2012,AR,Hackett WWTP,Hackett,35.1812,-94.4239,0.042,0.058070082,5000694001,AR0039781,sewer_system
658,658,AR03445,CWNS2012,AR,Huntington WWTP,Huntington,35.0834,-94.2685,0.084,0.116140164,5000696001,AR0037419,sewer_system
659,659,AR03455,CWNS2012,AR,Lavaca WWTP,Lavaca,35.3506,-94.1506,0.076,0.105079196,5000697001,AR0034070,sewer_system
660,660,AR03465,CWNS2012,AR,De Queen WWTP,De Queen,34.0253,-94.3472,1.966,2.718232891,5000701001,AR0021733,sewer_system
661,661,AR03475,CWNS2012,AR,Horatio WWTP,Horatio,33.9309,-94.351,0.082,0.113374922,5000703001,AR0035785,sewer_system
662,662,AR03485,CWNS2012,AR,Lockesburg WWTP,Lockesburg,33.9667,-94.1917,0.026,0.035948146,5000704001,AR0021377,sewer_system
663,663,AR03495,CWNS2012,AR,Ash Flat WWTP,Ash Flat,36.2148,-91.5986,0.085,0.117522785,5000707001,AR0041742,sewer_system
664,664,AR03505,CWNS2012,AR,Cave City WWTP,Cave City,35.9372,-91.5364,0.177,0.2447239174424999,5000708001,AR0022110,sewer_system
665,665,AR03515,CWNS2012,AR,Hardy WWTP,Hardy,36.3186,-91.4736,0.092,0.127201132,5000710001,AR0037991,sewer_system
666,666,AR03525,CWNS2012,AR,Calion WWTP,Calion,33.3428,-92.5392,0.038,0.052539598,5000715001,AR0038211,sewer_system
667,667,AR03545,CWNS2012,AR,Felsenthal WWTP,Felsenthal,33.0469,-92.14,0.007,0.009678347,5000716001,AR0039659,sewer_system
668,668,AR03555,CWNS2012,AR,Huttig WWTP,Huttig,33.0379,-92.1938,0.036,0.049774356,5000717001,AR0022268,sewer_system
669,669,AR03565,CWNS2012,AR,Junction City WWTP,Junction City,33.0278,-92.7039,0.003,0.004147863,5000718001,AR0022179,sewer_system
670,670,AR03575,CWNS2012,AR,Norphlet WWTP,Norphlet,33.305,-92.6528,0.041,0.056687461,5000722001,AR0035653,sewer_system
671,671,AR03585,CWNS2012,AR,Smackover WWTP,Smackover,33.3711,-92.7192,0.125,0.1728276253124999,5000723001,AR0021440,sewer_system
672,672,AR03595,CWNS2012,AR,Clinton - East WWTP,Clinton,35.5804,-92.4474,0.637,0.880729579,5000726001,AR0048836,sewer_system
673,673,AR03605,CWNS2012,AR,Clinton - West WWTP,Clinton,35.5816,-92.4842,0.15,0.20739315,5000726002,AR0048747,sewer_system
674,674,AR03615,CWNS2012,AR,Elm Springs WWTP,Elm Springs,36.2169,-94.2447,0.036,0.049774356,5000736001,0,no_permit
675,675,AR03625,CWNS2012,AR,Lincoln WWTP,Lincoln,35.9369,-94.4217,0.452,0.624944693,5000742001,AR0035246,sewer_system
676,676,AR03635,CWNS2012,AR,Prairie Grove WWTP,Prairie Grove,35.9394,-94.3339,0.295,0.4078731957374999,5000743001,AR0022098,sewer_system
677,677,AR03645,CWNS2012,AR,West Fork WWTP,West Fork,35.9399,-94.1842,0.121,0.167297141,5000745001,AR0022373,sewer_system
678,678,AR03655,CWNS2012,AR,Beebe WWTP,Beebe,35.0315,-91.891,1.228,1.697858591,5000749001,AR0022101,sewer_system
679,679,AR03665,CWNS2012,AR,Griffithville WWTP,Griffithville,35.1236,-91.6361,0.058,0.080192018,5000753001,AR0042803,sewer_system
680,680,AR03675,CWNS2012,AR,Higginson WWTP,Higginson,35.199,-91.6882,0.208,0.287585169,5000755001,AR0044822,sewer_system
681,681,AR03685,CWNS2012,AR,Judsonia WWTP,Judsonia,35.2645,-91.6409,0.13,0.17974073,5000756001,AR0035742,sewer_system
682,682,AR03695,CWNS2012,AR,Kensett WWTP,Kensett,35.2323,-91.6671,0.093,0.128583753,5000757001,AR0022322,sewer_system
683,683,AR03705,CWNS2012,AR,Letona WWTP,Letona,35.3717,-91.8349,0.012,0.016591452,5000758001,AR0049859,sewer_system
684,684,AR03715,CWNS2012,AR,McRae WWTP,McRae,35.1108,-91.8119,0.068,0.094018228,5000759001,AR0021504,sewer_system
685,685,AR03725,CWNS2012,AR,Pangburn WWTP,Pangburn,35.4315,-91.8431,0.119,0.1645318992974999,5000760001,AR0039233,sewer_system
686,686,AR03735,CWNS2012,AR,Russell WWTP,Russell,35.3604,-91.4949,0.102,0.141027342,5000763001,AR0022217,sewer_system
687,687,AR03745,CWNS2012,AR,Augusta WWTP,Augusta,35.2644,-91.3694,0.151,0.2087757713774999,5000764001,AR0034738,sewer_system
688,688,AR03755,CWNS2012,AR,Cotton Plant WWTP,Cotton Plant,34.9992,-91.2428,0.001,0.001382621,5000765001,AR0033391,sewer_system
689,689,AR03765,CWNS2012,AR,McCrory WWTP,McCrory,35.2503,-91.2456,0.179,0.247489159,5000770001,AR0044954,sewer_system
690,690,AR03775,CWNS2012,AR,Patterson WWTP,Patterson,35.2515,-91.2456,0.001,0.001382621,5000771001,AR0039837,sewer_system
691,691,AR03785,CWNS2012,AR,Dardanelle WWTP,Dardanelle,35.1875,-93.1372,0.577,0.797772318,5000775001,AR0033421,sewer_system
692,692,AR03795,CWNS2012,AR,Havana WWTP,Havana,35.0946,-93.5348,0.006,0.008295726,5000777001,AR0046256,sewer_system
693,693,AR03805,CWNS2012,AR,Ola WWTP,Ola,35.0302,-93.2084,0.214,0.295880895,5000778001,AR0035688,sewer_system
694,694,AR03815,CWNS2012,AR,Plainview (Yell Co.) WWTP,Plainview,34.9956,-93.3267,0.034,0.047009114,5000779001,AR0049344,sewer_system
695,695,AR03825,CWNS2012,AR,H. A. C. T. WWTP,Humnoke,34.5459,-91.7918,0.124,0.1714450043099999,5000782001,AR0048313,sewer_system
696,696,AR03835,CWNS2012,AR,Gillham Regional WWD WWTP,Wickes,34.1651,-94.3264,0.076,0.105079196,5000783001,AR0047996,sewer_system
697,697,AR03845,CWNS2012,AR,Tri - City WWTP,O'Kean,36.1646,-90.8112,0.04,0.05530484,5000801001,AR0043486,sewer_system
698,698,AR03865,CWNS2012,AR,Lake View (Phillips Co) WWTP,Helena-West Helena,34.4274,-90.8257,0.001,0.001382621,5000815001,AR0041327,sewer_system
699,699,AR03875,CWNS2012,AR,Oak Grove Heights WWTP,Paragould,36.1289,-90.5036,0.071,0.098166091,5000816001,AR0045837,sewer_system
700,700,AR03885,CWNS2012,AR,Siloam Springs WWTP,Siloam Springs,36.194,-94.564,2.423,3.350090689,5009000002,AR0020273,sewer_system
701,701,AR03895,CWNS2012,AR,Portland WWTP,Portland,33.246,-91.5368,0.034,0.047009114,5009400001,AR0034371,sewer_system
702,702,AL03080,ICIS2022,AL,JOE WHEELER STATE PARK AND ROGERSVILLE LAGOON,ROGERSVILLE,34.805,-87.3307,0.261,0.360864082,0,AL0032387,sewer_system
703,703,AL03100,ICIS2022,AL,LEXINGTON LAGOON AND SPRAYFIELD,LEXINGTON,34.961667,-87.354111,0.187,0.258550127,0,AL0072834,sewer_system
704,704,AR03930,ICIS2022,AR,FAULKNER COUNTY PUBLIC FACILITY BOARD - D/B/A PRESTON COMMUNITY WW UTILITY,MAYFLOWER,35.027222,-92.411806,0.929,1.284454911,5000804001,AR0050571,sewer_system
705,705,AR04000,ICIS2022,AR,RUNYAN SID #211,GRAVEL RIDGE,34.876417,-92.2235,0.38,0.525395981,5000850001,AR0038075,sewer_system
706,706,AL03130,ICIS2022,AL,MALLARD FOX WEST WWTP,TRINITY,34.614444,-87.109722,0.102,0.141027342,0,AL0076708,sewer_system
707,707,AR04040,CWNS2012,AR,Centerton Collection System,0,36.3597,-94.285,0,0,5000093001,0,no_permit
708,708,AS00005,CWNS2012,AS,UTULEI WWTF,Pago Pago,14.2839,-170.6778,0.41,0.566874611,60000001001,AS0020001,sewer_system
709,709,AS00015,CWNS2012,AS,TAFUNA WWTF,Pago Pago,14.3483,-170.725,2.7,3.733076707,60000001002,AS0020010,sewer_system
710,710,AZ00005,CWNS2012,AZ,Pinewood Sanitary District,Munds Park,34.9358,-111.648,0.22,0.304176621,4000000002,AZ0015879,other_system
711,711,AZ00015,CWNS2012,AZ,Alpine SD WWTF,Alpine,33.8486,-109.1453,0.041,0.056687461,4000101001,AZ0025089,sewer_system
712,712,AZ00025,CWNS2012,AZ,Little Colorado River SD (Greer) WWTF,Show Low,33.9194,-109.5669,0.05,0.06913105,4000101002,0,no_permit
713,713,AZ00035,CWNS2012,AZ,Eagar WWTP,Eagar,34.145,-109.2883,0.22,0.304176621,4000105001,0,no_permit
714,714,AZ00045,CWNS2012,AZ,Springerville WWTF,Springerville,34.1394,-109.2522,0.2,0.276524201,4000106001,0,no_permit
715,715,AZ00055,CWNS2012,AZ,St. Johns WWTP,St. Johns,34.5342,-109.3658,0.13,0.17974073,4000107001,0,no_permit
716,716,AZ00065,CWNS2012,AZ,Benson WWTF,Benson,31.9697,-110.2792,0.5,0.6913105012499999,4000301001,0,no_permit
717,717,AZ00075,CWNS2012,AZ,Bisbee - San Jose WWTF,Bisbee,31.3583,-109.9164,0.36,0.497743561,4000302002,0,no_permit
718,718,AZ00085,CWNS2012,AZ,Douglas WWTF,Douglas,31.3789,-109.5453,1.8,2.488717805,4000304001,0,no_permit
719,719,AZ00095,CWNS2012,AZ,Huachuca City WWTF,Huachuca City,31.6505,-110.3162,0.15,0.20739315,4000306001,0,no_permit
720,720,AZ00105,CWNS2012,AZ,Naco SD WWTF,Naco,32.29,-110.1689,0.054,0.074661534,4000308001,0,no_permit
721,721,AZ00115,CWNS2012,AZ,Sierra Vista WWTF,Sierra Vista,31.6628,-110.1969,3.1,4.286125108,4000311001,0,no_permit
722,722,AZ00125,CWNS2012,AZ,Tombstone WWTF,Tombstone,31.7127,-110.0672,0.07,0.09678347,4000313001,AZ0025577,sewer_system
723,723,AZ00135,CWNS2012,AZ,Willcox WWTF,Willcox,32.2488,-109.8251,0.32,0.4424387207999999,4000314001,0,no_permit
724,724,AZ00145,CWNS2012,AZ,Flagstaff Wildcat Hill WWTF,Flagstaff,35.2256,-111.5577,4.8,6.636580812,4000501002,AZ0020427,sewer_system
725,725,AZ00155,CWNS2012,AZ,Flagstaff Rio de Flag WWTF,Flagstaff,35.1884,-111.6307,1.98,2.7375895849500003,4000501003,AZ0023639,sewer_system
726,726,AZ00165,CWNS2012,AZ,Fredonia WWTF,Fredonia,36.92,-112.5392,0.14,0.19356694,4000502001,0,no_permit
727,727,AZ00175,CWNS2012,AZ,South Grand Canyon Sanitary District Tusayan WWTP,Grand Canyon,35.5831,-112.0817,0.15,0.20739315,4000502002,0,no_permit
728,728,AZ00185,CWNS2012,AZ,Page WWTF,Page,36.9108,-111.4858,1,1.382621003,4000506001,0,no_permit
729,729,AZ00195,CWNS2012,AZ,Williams WWTF,Williams,35.2706,-112.1814,0.5,0.6913105012499999,4000507001,AZ0025755,sewer_system
730,730,AZ00205,CWNS2012,AZ,Kachina Village WWTF,Flagstaff,35.2022,-111.5681,0.15,0.20739315,4000511001,0,no_permit
731,731,AZ00215,CWNS2012,AZ,Globe WWTF,Globe,33.3961,-110.7883,0.9,1.244358902,4000701001,AZ0020249,sewer_system
732,732,AZ00225,CWNS2012,AZ,Miami WWTF,Miami,33.435,-110.8333,0.436,0.602822757,4000701002,0,no_permit
733,733,AZ00235,CWNS2012,AZ,Northern Gila County SD (Payson),Payson,34.2861,-111.3598,1.5,2.073931504,4000703001,AZ0020117,sewer_system
734,734,AZ00245,CWNS2012,AZ,Winkelman WWTF,Phoenix,32.9859,-110.7747,0.034,0.047009114,4000707001,AZ0020176,sewer_system
735,735,AZ00255,CWNS2012,AZ,Pima WWTF,Pima,32.9169,-109.8369,0.048,0.066365808,4000903001,0,no_permit
736,736,AZ00265,CWNS2012,AZ,Safford WWTF,Safford,32.8413,-109.7233,1,1.382621003,4000904001,AZ0024911,sewer_system
737,737,AZ00275,CWNS2012,AZ,Thatcher WWTF,Thatcher,32.8667,-109.7694,0.41,0.566874611,4000905001,0,no_permit
738,738,AZ00285,CWNS2012,AZ,Chino Valley,Chino Valley,34.7834,-112.4224,0.325,0.449351826,4001100110,0,no_permit
739,739,AZ00295,CWNS2012,AZ,Clifton WWTF,Cliffton,33.0367,-109.2989,0.151,0.2087757713774999,4001101001,0,no_permit
740,740,AZ00305,CWNS2012,AZ,Duncan WWTF,Duncan,32.73,-109.1037,0.06,0.08295726,4001102001,0,no_permit
741,741,AZ00315,CWNS2012,AZ,Buckeye Central WRF,Scottsdale,33.3705,-112.5842,1.2,1.659145203,4001302001,AZ0025313,sewer_system
742,742,AZ00325,CWNS2012,AZ,Buckeye - Douglas Ranch WRF,Scottsdale,33.0101,-112.0134,0,0,4001302002,0,no_permit
743,743,AZ00335,CWNS2012,AZ,Buckeye - Sun Valley WRF,Scottsdale,33.5539,-112.7122,0,0,4001302003,0,no_permit
744,744,AZ00345,CWNS2012,AZ,Buckeye Municipal Airport WRF,Scottsdale,33.4129,-112.691,0,0,4001302004,0,no_permit
745,745,AZ00355,CWNS2012,AZ,Buckeye Festival Ranch WRF,Scottsdale,33.6558,-112.6714,0.026,0.035948146,4001302005,0,no_permit
746,746,AZ00365,CWNS2012,AZ,Buckeye Gila 85 WRF,Scottsdale,33.3039,-112.5378,0,0,4001302006,0,no_permit
747,747,AZ00375,CWNS2012,AZ,Buckeye Gila Hassayampa WRF,Scottsdale,33.2931,-112.5933,0,0,4001302007,0,no_permit
748,748,AZ00385,CWNS2012,AZ,Buckeye Gila Rainbow WRF,Scottsdale,33.2103,-112.6925,0,0,4001302008,0,no_permit
749,749,AZ00395,CWNS2012,AZ,Buckeye Gila Southwest WRF,Scottsdale,33.1308,-112.6842,0,0,4001302009,0,no_permit
750,750,AZ00405,CWNS2012,AZ,Buckeye Western Regional WRF,Scottsdale,33.4017,-112.6861,0,0,4001302011,0,no_permit
751,751,AZ00415,CWNS2012,AZ,Buckeye Sundance WRF,Scottsdale,33.4239,-112.5206,0.692,0.956773734,4001302012,0,no_permit
752,752,AZ00425,CWNS2012,AZ,Buckeye Tartesso East WRF,Scottsdale,33.4378,-112.65,0,0,4001302013,0,no_permit
753,753,AZ00435,CWNS2012,AZ,Buckeye Tartesso West WRF,Scottsdale,33.4669,-112.7353,0.112,0.154853552,4001302014,0,no_permit
754,754,AZ00445,CWNS2012,AZ,Buckeye Trillium West WRF,Scottsdale,33.5886,-112.7311,0,0,4001302015,0,no_permit
755,755,AZ00455,CWNS2012,AZ,CHANDLER LONE BUTTE WWTF,Chandler,33.2603,-112.0203,4,5.53048401,4001304001,0,no_permit
756,756,AZ00465,CWNS2012,AZ,Chandler Airport WRF,Chandler,33.2878,-111.8179,12,16.59145203,4001304002,0,no_permit
757,757,AZ00475,CWNS2012,AZ,Chandler Ocotillo WRF,Chandler,33.2561,-111.8889,9,12.44358902,4001304003,0,no_permit
758,758,AZ00485,CWNS2012,AZ,Gila Bend WWTF,Gila Bend,32.9448,-112.7282,0.27,0.373307671,4001308001,AZ0020231,sewer_system
759,759,AZ00495,CWNS2012,AZ,Gilbert Neely WWTF,Mesa,33.3584,-111.7984,8.4,11.61401642,4001309001,0,no_permit
760,760,AZ00505,CWNS2012,AZ,Glendale West Area WRF,Glendale,33.5218,-112.2963,5.8,8.019201814499999,4001312002,0,no_permit
761,761,AZ00515,CWNS2012,AZ,Glendale Arrowhead Ranch WWRF,Glendale,33.6538,-112.2309,2.8,3.871338807,4001312003,0,no_permit
762,762,AZ00525,CWNS2012,AZ,MESA SOUTHEAST WRP,Mesa,33.3792,-111.6947,8,11.06096802,4001315003,0,no_permit
763,763,AZ00535,CWNS2012,AZ,Mesa Northwest WRP,Mesa,33.4342,-111.8803,10,13.82621003,4001315005,AZ0024627,sewer_system
764,764,AZ00545,CWNS2012,AZ,Mesa Greenfield WRP,Mesa,33.27,-111.7419,10,13.82621003,4001315009,0,no_permit
765,765,AZ00555,CWNS2012,AZ,Phoenix 23rd Ave WWTP,Phoenix,33.4267,-112.1064,30,41.47863008,4001316001,AZ0020559,sewer_system
766,766,AZ00565,CWNS2012,AZ,Phoenix Cave Creek WRP,Phoenix,33.694,-112.0294,0.001,0.001382621,4001316002,AZ0024465,sewer_system
767,767,AZ00575,CWNS2012,AZ,North Gateway WRP,Phoenix,33.7402,-112.1166,0,0,4001316010,0,no_permit
768,768,AL03135,ICIS2022,AL,MEADOWBROOK HCR LAGOON,CAMDEN,31.967478,-87.209906,0.33,0.4562649308249999,0,AL0079081,sewer_system
769,769,AZ00595,CWNS2012,AZ,Scottsdale Gainey Ranch WRF,Scottsdale,33.5742,-111.9251,1.2,1.659145203,4001320002,0,no_permit
770,770,AZ00605,CWNS2012,AZ,Scottsdale Water Campus WRP,Scottsdale,33.6614,-111.8928,10.8,14.93230683,4001320004,0,no_permit
771,771,AZ00615,CWNS2012,AZ,Scottsdale Water Campus AWT,Scottsdale,33.6614,-111.8928,17,23.50455704,4001320005,0,no_permit
772,772,AZ00625,CWNS2012,AZ,FOUNTAIN HILLS WWTP,Fountain Hills,33.615,-111.7125,2,2.765242005,4001328001,0,no_permit
773,773,AZ00635,CWNS2012,AZ,TOLLESON WWTF,Tolleson,33.4503,-112.2655,5.5,7.604415514,4001332001,AZ0020338,sewer_system
774,774,AZ00645,CWNS2012,AZ,Avondale WWTF,Avondale,33.4007,-112.3405,4.6,6.360056611499999,4001334001,AZ0023281,sewer_system
775,775,AZ00655,CWNS2012,AZ,Wickenburg WWTF,Wickenburg,33.9564,-112.7163,0.5,0.6913105012499999,4001340001,AZ0020044,sewer_system
776,776,AZ00665,CWNS2012,AZ,Goodyear 157th Ave WWRF,Goodyear,33.3986,-112.3965,3.2,4.424387208,4001341001,AZ0022357,sewer_system
777,777,AZ00675,CWNS2012,AZ,Goodyear Corgett WRP,Goodyear,33.4478,-112.3583,0.58,0.801920181,4001341002,AZ0023582,sewer_system
778,778,AZ00685,CWNS2012,AZ,Goodyear Rainbow Valley WRF,Goodyear,33.3346,-112.4688,0.28,0.387133881,4001341003,0,no_permit
779,779,AZ00695,CWNS2012,AZ,Goodyear Waterman Wash WRP,Goodyear,33.2578,-112.4467,0,0,4001341004,0,no_permit
780,780,AZ00705,CWNS2012,AZ,Goodyear Estrella WRP,Goodyear,33.1925,-112.3544,0,0,4001341006,0,no_permit
781,781,AZ00715,CWNS2012,AZ,Goodyear Pecos WRP,Goodyear,33.3,-112.4858,0,0,4001341007,0,no_permit
782,782,AZ00725,CWNS2012,AZ,Peoria Jomax WRF,Peoria,33.7256,-112.3297,0.436,0.602822757,4001343001,0,no_permit
783,783,AZ00735,CWNS2012,AZ,Peoria Butler WRF,Peoria,33.5621,-112.2313,6.88,9.512432497,4001343002,0,no_permit
784,784,AZ00745,CWNS2012,AZ,Peoria Beardsley WRF,Peoria,33.6668,-112.2995,2.53,3.498031136,4001343003,0,no_permit
785,785,AZ00755,CWNS2012,AZ,El Mirage WRF,El Mirage,33.5786,-112.3197,1.88,2.599327485,4001344001,AZ0023272,sewer_system
786,786,AZ00765,CWNS2012,AZ,Cave Creek WRF,Cave Creek,33.8006,-111.9889,0.175,0.2419586754374999,4001349103,0,no_permit
787,787,AZ00775,CWNS2012,AZ,Surprise South WRF,Surprise,33.6377,-112.3273,8,11.06096802,4001363001,0,no_permit
788,788,AZ00785,CWNS2012,AZ,Bullhead City Section 10 WWTP,Bullhead City,35.0521,-114.6031,2,2.765242005,4001503002,0,no_permit
789,789,AZ00795,CWNS2012,AZ,Bullhead City Section 18 WWTF,Bullhead City,35.112,-114.556,0.75,1.036965752,4001503005,0,no_permit
790,790,AZ00805,CWNS2012,AZ,Lake Havasu City Pittsburgh Island WWTP,Lake Havasu,34.4622,-114.3564,0.3,0.414786301,4001505001,0,no_permit
791,791,AZ00815,CWNS2012,AZ,Lake Havasu City Mulberry Ave STP,Lake Havasu,34.4656,-114.3286,1,1.382621003,4001505002,0,no_permit
792,792,AZ00825,CWNS2012,AZ,Lake Havasu City North Regional WWTP,Lake Havasu,34.5511,-114.3402,2.4,3.318290406,4001505030,0,no_permit
793,793,AZ00835,CWNS2012,AZ,Kingman Hilltop WWTF,Kingman,35.1908,-114.0528,1.6,2.212193604,4001506001,AZ0022489,sewer_system
794,794,AZ00845,CWNS2012,AZ,Kingman Downtown WWTF,Kingman,35.1908,-114.0528,0.164,0.226749844,4001506002,AZ0022489,sewer_system
795,795,AZ00855,CWNS2012,AZ,Holbrook WWTF,Holbrook,34.9074,-110.1888,0.65,0.898703652,4001704001,0,no_permit
796,796,AZ00865,CWNS2012,AZ,Pinetop-Lakeside SD WWTF,Lakeside,34.1708,-109.9835,0.9,1.244358902,4001711001,0,no_permit
797,797,AZ00875,CWNS2012,AZ,Show Low WWTF,Show Low,34.2622,-110.0319,1,1.382621003,4001713001,0,no_permit
798,798,AZ00885,CWNS2012,AZ,Snowflake WWTF,Snowflake,34.5153,-110.0889,0.257,0.355333598,4001715001,0,no_permit
799,799,AZ00895,CWNS2012,AZ,Taylor WWTF,Taylor,34.4691,-110.0566,0.21,0.290350411,4001716001,0,no_permit
800,800,AZ00905,CWNS2012,AZ,Winslow WWTF,Winslow,35.022,-110.6975,1.3,1.797407303,4001717001,AZ0023833,sewer_system
801,801,AZ00915,CWNS2012,AZ,Joseph City SD WWTF,Joseph City,34.9583,-110.3333,0.28,0.387133881,4001718001,0,no_permit
802,802,AZ00925,CWNS2012,AZ,PCRWRD Ina Road WPCF,Tucson,32.3365,-111.0661,27.5,38.02207757,4001903001,AZ0020001,sewer_system
803,803,AZ00935,CWNS2012,AZ,PCRWRD Green Valley WRF,Tucson,31.9167,-110.9703,2.08,2.875851685,4001903002,AZ0024937,sewer_system
804,804,AZ00945,CWNS2012,AZ,PCRWRD Avra Valley WWTF,Tucson,32.1645,-111.1764,2.2,3.041766206,4001903003,0,no_permit
805,805,AZ00955,CWNS2012,AZ,PCRWRD Arivaca Junction WWTF,Tucson,31.4332,-111.0328,0.05,0.06913105,4001903006,0,no_permit
